[{"name":"Production #1","city": "Loures","location":"Lisboa","postal_code":"2542-346","capacity":7153,"uid_supplier":"1259319a-196b-4b1f-b5e5-ebbcce278781"},
{"name":"Production #2","city": "Loures","location":"Porto","postal_code":"2542-346","capacity":2449,"uid_supplier":"1259319a-196b-4b1f-b5e5-ebbcce278781"},
{"name":"pretium","city": "Loures","location":"Kokas","postal_code":"2542-346","capacity":9234,"uid_supplier":3},
{"name":"tortor","city": "Loures","location":"Szczytno","postal_code":"2542-346","capacity":9242,"uid_supplier":4},
{"name":"mattis","city": "Loures","location":"Rinconada","postal_code":"2542-346","capacity":3663,"uid_supplier":5},
{"name":"nonummy","city": "Loures","location":"Keboireng","postal_code":"2542-346","capacity":8329,"uid_supplier":6},
{"name":"pharetra","city": "Loures","location":"Sechelt","postal_code":"2542-346","capacity":3604,"uid_supplier":7},
{"name":"proin","city": "Loures","location":"Staryy Dobrotvir","postal_code":"2542-346","capacity":477,"uid_supplier":8},
{"name":"at","city": "Loures","location":"Joaquín V. González","postal_code":"2542-346","capacity":6254,"uid_supplier":9},
{"name":"blandit","city": "Loures","location":"Teculután","postal_code":"2542-346","capacity":3277,"uid_supplier":10},
{"name":"augue","city": "Loures","location":"Pak Phli","postal_code":"2542-346","capacity":7697,"uid_supplier":11},
{"name":"nam","city": "Loures","location":"Yinhedahan’er","postal_code":"2542-346","capacity":6640,"uid_supplier":12},
{"name":"tincidunt","city": "Loures","location":"Sutton","postal_code":"2542-346","capacity":8498,"uid_supplier":13},
{"name":"accumsan","city": "Loures","location":"Sundsvall","postal_code":"2542-346","capacity":2308,"uid_supplier":14},
{"name":"pretium","city": "Loures","location":"Banatski Despotovac","postal_code":"2542-346","capacity":1098,"uid_supplier":15},
{"name":"tincidunt","city": "Loures","location":"Mooka","postal_code":"2542-346","capacity":7319,"uid_supplier":16},
{"name":"posuere","city": "Loures","location":"Pinheiro","postal_code":"2542-346","capacity":732,"uid_supplier":17},
{"name":"maecenas","city": "Loures","location":"Vila do Bispo","postal_code":"2542-346","capacity":6850,"uid_supplier":18},
{"name":"sed","city": "Loures","location":"Milwaukee","postal_code":"2542-346","capacity":6862,"uid_supplier":19},
{"name":"tempus","city": "Loures","location":"Nelas","postal_code":"2542-346","capacity":114,"uid_supplier":20},
{"name":"morbi","city": "Loures","location":"Severo-Zadonsk","postal_code":"2542-346","capacity":7384,"uid_supplier":21},
{"name":"feugiat","city": "Loures","location":"Palama","postal_code":"2542-346","capacity":2120,"uid_supplier":22},
{"name":"erat","city": "Loures","location":"Mekarsari","postal_code":"2542-346","capacity":8176,"uid_supplier":23},
{"name":"vitae","city": "Loures","location":"Valday","postal_code":"2542-346","capacity":3799,"uid_supplier":24},
{"name":"sit","city": "Loures","location":"Buenavista","postal_code":"2542-346","capacity":6234,"uid_supplier":25},
{"name":"sapien","city": "Loures","location":"Maribong","postal_code":"2542-346","capacity":3802,"uid_supplier":26},
{"name":"ornare","city": "Loures","location":"Kendayakan","postal_code":"2542-346","capacity":4313,"uid_supplier":27},
{"name":"curae","city": "Loures","location":"Vällingby","postal_code":"2542-346","capacity":3630,"uid_supplier":28},
{"name":"bibendum","city": "Loures","location":"Dishnā","postal_code":"2542-346","capacity":5656,"uid_supplier":29},
{"name":"ut","city": "Loures","location":"Yanwang","postal_code":"2542-346","capacity":4960,"uid_supplier":30},
{"name":"est","city": "Loures","location":"Lamego","postal_code":"2542-346","capacity":1739,"uid_supplier":31},
{"name":"libero","city": "Loures","location":"Al Ḩajar al Aswad","postal_code":"2542-346","capacity":1526,"uid_supplier":32},
{"name":"id","city": "Loures","location":"Montpellier","postal_code":"2542-346","capacity":8902,"uid_supplier":33},
{"name":"dictumst","city": "Loures","location":"Sukowiryo","postal_code":"2542-346","capacity":8409,"uid_supplier":34},
{"name":"curabitur","city": "Loures","location":"Dingle","postal_code":"2542-346","capacity":9944,"uid_supplier":35},
{"name":"dis","city": "Loures","location":"Da’an","postal_code":"2542-346","capacity":1031,"uid_supplier":36},
{"name":"nullam","city": "Loures","location":"Potulando","postal_code":"2542-346","capacity":9956,"uid_supplier":37},
{"name":"in","city": "Loures","location":"São João Nepomuceno","postal_code":"2542-346","capacity":804,"uid_supplier":38},
{"name":"quisque","city": "Loures","location":"Wat Bot","postal_code":"2542-346","capacity":7886,"uid_supplier":39},
{"name":"at","city": "Loures","location":"Sancang","postal_code":"2542-346","capacity":70,"uid_supplier":40},
{"name":"sapien","city": "Loures","location":"Popova","postal_code":"2542-346","capacity":4573,"uid_supplier":41},
{"name":"vitae","city": "Loures","location":"Ziguinchor","postal_code":"2542-346","capacity":8752,"uid_supplier":42},
{"name":"ut","city": "Loures","location":"Kudamatsu","postal_code":"2542-346","capacity":4007,"uid_supplier":43},
{"name":"rhoncus","city": "Loures","location":"Songzhuang","postal_code":"2542-346","capacity":1057,"uid_supplier":44},
{"name":"eget","city": "Loures","location":"Anulid","postal_code":"2542-346","capacity":3813,"uid_supplier":45},
{"name":"quisque","city": "Loures","location":"Hupalivka","postal_code":"2542-346","capacity":5159,"uid_supplier":46},
{"name":"habitasse","city": "Loures","location":"Baranowo","postal_code":"2542-346","capacity":630,"uid_supplier":47},
{"name":"duis","city": "Loures","location":"Gaoliban","postal_code":"2542-346","capacity":2673,"uid_supplier":48},
{"name":"etiam","city": "Loures","location":"Zhuxi Chengguanzhen","postal_code":"2542-346","capacity":463,"uid_supplier":49},
{"name":"condimentum","city": "Loures","location":"Jambesari","postal_code":"2542-346","capacity":8637,"uid_supplier":50},
{"name":"libero","city": "Loures","location":"Maubin","postal_code":"2542-346","capacity":6912,"uid_supplier":51},
{"name":"sagittis","city": "Loures","location":"Gweedore","postal_code":"2542-346","capacity":4620,"uid_supplier":52},
{"name":"mauris","city": "Loures","location":"Minjian","postal_code":"2542-346","capacity":2032,"uid_supplier":53},
{"name":"eget","city": "Loures","location":"Maimará","postal_code":"2542-346","capacity":5570,"uid_supplier":54},
{"name":"cras","city": "Loures","location":"Osiek","postal_code":"2542-346","capacity":3037,"uid_supplier":55},
{"name":"at","city": "Loures","location":"Springfield","postal_code":"2542-346","capacity":3671,"uid_supplier":56},
{"name":"at","city": "Loures","location":"Kyjov","postal_code":"2542-346","capacity":7451,"uid_supplier":57},
{"name":"sed","city": "Loures","location":"Braunschweig","postal_code":"2542-346","capacity":9235,"uid_supplier":58},
{"name":"eget","city": "Loures","location":"Huyu","postal_code":"2542-346","capacity":9336,"uid_supplier":59},
{"name":"mattis","city": "Loures","location":"Pérama","postal_code":"2542-346","capacity":1924,"uid_supplier":60},
{"name":"in","city": "Loures","location":"Hougong","postal_code":"2542-346","capacity":5367,"uid_supplier":61},
{"name":"blandit","city": "Loures","location":"Wotsogo","postal_code":"2542-346","capacity":7844,"uid_supplier":62},
{"name":"aenean","city": "Loures","location":"Kebonkaret","postal_code":"2542-346","capacity":7922,"uid_supplier":63},
{"name":"porttitor","city": "Loures","location":"Avignon","postal_code":"2542-346","capacity":7699,"uid_supplier":64},
{"name":"posuere","city": "Loures","location":"Nanshan","postal_code":"2542-346","capacity":4733,"uid_supplier":65},
{"name":"duis","city": "Loures","location":"Kuloy","postal_code":"2542-346","capacity":9439,"uid_supplier":66},
{"name":"vivamus","city": "Loures","location":"Cergy-Pontoise","postal_code":"2542-346","capacity":9742,"uid_supplier":67},
{"name":"blandit","city": "Loures","location":"Fresno","postal_code":"2542-346","capacity":8168,"uid_supplier":68},
{"name":"in","city": "Loures","location":"Rakek","postal_code":"2542-346","capacity":4051,"uid_supplier":69},
{"name":"sed","city": "Loures","location":"Capão da Canoa","postal_code":"2542-346","capacity":8565,"uid_supplier":70},
{"name":"vel","city": "Loures","location":"Atescatempa","postal_code":"2542-346","capacity":2970,"uid_supplier":71},
{"name":"enim","city": "Loures","location":"Öjebyn","postal_code":"2542-346","capacity":5451,"uid_supplier":72},
{"name":"nulla","city": "Loures","location":"Santiago Vázquez","postal_code":"2542-346","capacity":9128,"uid_supplier":73},
{"name":"congue","city": "Loures","location":"Phoenix","postal_code":"2542-346","capacity":736,"uid_supplier":74},
{"name":"ut","city": "Loures","location":"Tegalrejo","postal_code":"2542-346","capacity":6769,"uid_supplier":75},
{"name":"adipiscing","city": "Loures","location":"Gandong","postal_code":"2542-346","capacity":2078,"uid_supplier":76},
{"name":"sollicitudin","city": "Loures","location":"Waipawa","postal_code":"2542-346","capacity":574,"uid_supplier":77},
{"name":"viverra","city": "Loures","location":"Dembī Dolo","postal_code":"2542-346","capacity":7514,"uid_supplier":78},
{"name":"suspendisse","city": "Loures","location":"‘Aşīrah ash Shamālīyah","postal_code":"2542-346","capacity":8424,"uid_supplier":79},
{"name":"sapien","city": "Loures","location":"Esperalvillo","postal_code":"2542-346","capacity":2958,"uid_supplier":80},
{"name":"mauris","city": "Loures","location":"São José do Rio Preto","postal_code":"2542-346","capacity":327,"uid_supplier":81},
{"name":"in","city": "Loures","location":"Jarada","postal_code":"2542-346","capacity":137,"uid_supplier":82},
{"name":"commodo","city": "Loures","location":"Brandfort","postal_code":"2542-346","capacity":2309,"uid_supplier":83},
{"name":"tempus","city": "Loures","location":"Dolod","postal_code":"2542-346","capacity":4321,"uid_supplier":84},
{"name":"nulla","city": "Loures","location":"Belén","postal_code":"2542-346","capacity":7509,"uid_supplier":85},
{"name":"cras","city": "Loures","location":"Fengshan","postal_code":"2542-346","capacity":6601,"uid_supplier":86},
{"name":"mattis","city": "Loures","location":"Pho Thong","postal_code":"2542-346","capacity":4711,"uid_supplier":87},
{"name":"enim","city": "Loures","location":"Yangzhuang","postal_code":"2542-346","capacity":386,"uid_supplier":88},
{"name":"diam","city": "Loures","location":"Bandhagen","postal_code":"2542-346","capacity":9978,"uid_supplier":89},
{"name":"nisl","city": "Loures","location":"Zhaocun","postal_code":"2542-346","capacity":4602,"uid_supplier":90},
{"name":"praesent","city": "Loures","location":"Rochester","postal_code":"2542-346","capacity":8752,"uid_supplier":91},
{"name":"quisque","city": "Loures","location":"Ruma","postal_code":"2542-346","capacity":6223,"uid_supplier":92},
{"name":"magna","city": "Loures","location":"Mostovskoy","postal_code":"2542-346","capacity":6784,"uid_supplier":93},
{"name":"cursus","city": "Loures","location":"Lewotukan","postal_code":"2542-346","capacity":2053,"uid_supplier":94},
{"name":"diam","city": "Loures","location":"Magsaysay","postal_code":"2542-346","capacity":4926,"uid_supplier":95},
{"name":"cubilia","city": "Loures","location":"Glatik","postal_code":"2542-346","capacity":4668,"uid_supplier":96},
{"name":"lorem","city": "Loures","location":"Hiratachō","postal_code":"2542-346","capacity":2886,"uid_supplier":97},
{"name":"auctor","city": "Loures","location":"Iraquara","postal_code":"2542-346","capacity":8580,"uid_supplier":98},
{"name":"nec","city": "Loures","location":"Kadujajar","postal_code":"2542-346","capacity":4799,"uid_supplier":99},
{"name":"integer","city": "Loures","location":"Xujiafang","postal_code":"2542-346","capacity":1703,"uid_supplier":100},
{"name":"amet","city": "Loures","location":"Xianzong","postal_code":"2542-346","capacity":7941,"uid_supplier":101},
{"name":"auctor","city": "Loures","location":"Boldumsaz","postal_code":"2542-346","capacity":4748,"uid_supplier":102},
{"name":"ut","city": "Loures","location":"Lấp Vò","postal_code":"2542-346","capacity":3912,"uid_supplier":103},
{"name":"cras","city": "Loures","location":"Gunungkendeng","postal_code":"2542-346","capacity":3188,"uid_supplier":104},
{"name":"convallis","city": "Loures","location":"Turirejo","postal_code":"2542-346","capacity":6259,"uid_supplier":105},
{"name":"vulputate","city": "Loures","location":"Sanxi","postal_code":"2542-346","capacity":6190,"uid_supplier":106},
{"name":"id","city": "Loures","location":"Fruitvale","postal_code":"2542-346","capacity":40,"uid_supplier":107},
{"name":"tortor","city": "Loures","location":"Polýkastro","postal_code":"2542-346","capacity":9945,"uid_supplier":108},
{"name":"pulvinar","city": "Loures","location":"Novouzensk","postal_code":"2542-346","capacity":9992,"uid_supplier":109},
{"name":"interdum","city": "Loures","location":"Arlington","postal_code":"2542-346","capacity":3641,"uid_supplier":110},
{"name":"amet","city": "Loures","location":"Gandoang","postal_code":"2542-346","capacity":9096,"uid_supplier":111},
{"name":"tempus","city": "Loures","location":"Ash Shuhadā’","postal_code":"2542-346","capacity":3997,"uid_supplier":112},
{"name":"donec","city": "Loures","location":"Nihaona","postal_code":"2542-346","capacity":4026,"uid_supplier":113},
{"name":"risus","city": "Loures","location":"Oke Mesi","postal_code":"2542-346","capacity":1868,"uid_supplier":114},
{"name":"erat","city": "Loures","location":"Panineungan","postal_code":"2542-346","capacity":4625,"uid_supplier":115},
{"name":"ut","city": "Loures","location":"Ḩalwān","postal_code":"2542-346","capacity":294,"uid_supplier":116},
{"name":"ornare","city": "Loures","location":"Barra Cheia","postal_code":"2542-346","capacity":643,"uid_supplier":117},
{"name":"lacus","city": "Loures","location":"Kujang","postal_code":"2542-346","capacity":7898,"uid_supplier":118},
{"name":"morbi","city": "Loures","location":"Troitskiy","postal_code":"2542-346","capacity":8923,"uid_supplier":119},
{"name":"vel","city": "Loures","location":"Fonte da Vaca","postal_code":"2542-346","capacity":8905,"uid_supplier":120},
{"name":"ultrices","city": "Loures","location":"Pimian","postal_code":"2542-346","capacity":9784,"uid_supplier":121},
{"name":"lacus","city": "Loures","location":"Paccho","postal_code":"2542-346","capacity":3145,"uid_supplier":122},
{"name":"in","city": "Loures","location":"Tyrnyauz","postal_code":"2542-346","capacity":4812,"uid_supplier":123},
{"name":"diam","city": "Loures","location":"Mulyosari","postal_code":"2542-346","capacity":4719,"uid_supplier":124},
{"name":"sapien","city": "Loures","location":"Qingxi","postal_code":"2542-346","capacity":6521,"uid_supplier":125},
{"name":"nisl","city": "Loures","location":"Nanping","postal_code":"2542-346","capacity":4610,"uid_supplier":126},
{"name":"vulputate","city": "Loures","location":"Thun","postal_code":"2542-346","capacity":6508,"uid_supplier":127},
{"name":"mi","city": "Loures","location":"Frederiksberg","postal_code":"2542-346","capacity":4844,"uid_supplier":128},
{"name":"duis","city": "Loures","location":"Baligród","postal_code":"2542-346","capacity":158,"uid_supplier":129},
{"name":"nisl","city": "Loures","location":"Ovidiopol’","postal_code":"2542-346","capacity":4571,"uid_supplier":130},
{"name":"consequat","city": "Loures","location":"Pho Si Suwan","postal_code":"2542-346","capacity":2431,"uid_supplier":131},
{"name":"et","city": "Loures","location":"Okahandja","postal_code":"2542-346","capacity":6768,"uid_supplier":132},
{"name":"id","city": "Loures","location":"Bolkhov","postal_code":"2542-346","capacity":9352,"uid_supplier":133},
{"name":"phasellus","city": "Loures","location":"Nowy Dwór Gdański","postal_code":"2542-346","capacity":2461,"uid_supplier":134},
{"name":"pede","city": "Loures","location":"Cocabamba","postal_code":"2542-346","capacity":1417,"uid_supplier":135},
{"name":"nulla","city": "Loures","location":"Xiaohekou","postal_code":"2542-346","capacity":7440,"uid_supplier":136},
{"name":"tincidunt","city": "Loures","location":"Asprángeloi","postal_code":"2542-346","capacity":8018,"uid_supplier":137},
{"name":"quam","city": "Loures","location":"Lucapa","postal_code":"2542-346","capacity":2521,"uid_supplier":138},
{"name":"montes","city": "Loures","location":"Narathiwat","postal_code":"2542-346","capacity":5146,"uid_supplier":139},
{"name":"purus","city": "Loures","location":"Karibib","postal_code":"2542-346","capacity":2468,"uid_supplier":140},
{"name":"id","city": "Loures","location":"Dublje","postal_code":"2542-346","capacity":2056,"uid_supplier":141},
{"name":"vitae","city": "Loures","location":"Staryy Krym","postal_code":"2542-346","capacity":1494,"uid_supplier":142},
{"name":"velit","city": "Loures","location":"Yajin","postal_code":"2542-346","capacity":8867,"uid_supplier":143},
{"name":"mauris","city": "Loures","location":"Rio Grande da Serra","postal_code":"2542-346","capacity":6230,"uid_supplier":144},
{"name":"sit","city": "Loures","location":"Vale","postal_code":"2542-346","capacity":1322,"uid_supplier":145},
{"name":"in","city": "Loures","location":"Guadalupe Victoria","postal_code":"2542-346","capacity":2106,"uid_supplier":146},
{"name":"convallis","city": "Loures","location":"Obikiik","postal_code":"2542-346","capacity":9168,"uid_supplier":147},
{"name":"nulla","city": "Loures","location":"Karanglo","postal_code":"2542-346","capacity":2529,"uid_supplier":148},
{"name":"at","city": "Loures","location":"Vlorë","postal_code":"2542-346","capacity":6671,"uid_supplier":149},
{"name":"consequat","city": "Loures","location":"Kanal","postal_code":"2542-346","capacity":6446,"uid_supplier":150},
{"name":"augue","city": "Loures","location":"Sumberan","postal_code":"2542-346","capacity":3222,"uid_supplier":151},
{"name":"bibendum","city": "Loures","location":"Lazaro Cardenas","postal_code":"2542-346","capacity":8438,"uid_supplier":152},
{"name":"dapibus","city": "Loures","location":"Wāling","postal_code":"2542-346","capacity":7718,"uid_supplier":153},
{"name":"curabitur","city": "Loures","location":"Kakegawa","postal_code":"2542-346","capacity":3874,"uid_supplier":154},
{"name":"nullam","city": "Loures","location":"Chiri-Yurt","postal_code":"2542-346","capacity":1801,"uid_supplier":155},
{"name":"justo","city": "Loures","location":"Amouguer","postal_code":"2542-346","capacity":8522,"uid_supplier":156},
{"name":"risus","city": "Loures","location":"Uren’","postal_code":"2542-346","capacity":8472,"uid_supplier":157},
{"name":"ante","city": "Loures","location":"Energeticheskiy","postal_code":"2542-346","capacity":5008,"uid_supplier":158},
{"name":"amet","city": "Loures","location":"Shibetsu","postal_code":"2542-346","capacity":4169,"uid_supplier":159},
{"name":"neque","city": "Loures","location":"Sumber","postal_code":"2542-346","capacity":2981,"uid_supplier":160},
{"name":"habitasse","city": "Loures","location":"Dayr Abū Ḑa‘īf","postal_code":"2542-346","capacity":757,"uid_supplier":161},
{"name":"justo","city": "Loures","location":"Vallegrande","postal_code":"2542-346","capacity":5870,"uid_supplier":162},
{"name":"praesent","city": "Loures","location":"Táriba","postal_code":"2542-346","capacity":2534,"uid_supplier":163},
{"name":"ante","city": "Loures","location":"Bremen","postal_code":"2542-346","capacity":7696,"uid_supplier":164},
{"name":"lacus","city": "Loures","location":"Dongshangen","postal_code":"2542-346","capacity":8607,"uid_supplier":165},
{"name":"curabitur","city": "Loures","location":"Miramar","postal_code":"2542-346","capacity":7959,"uid_supplier":166},
{"name":"nulla","city": "Loures","location":"Clogherhead","postal_code":"2542-346","capacity":9471,"uid_supplier":167},
{"name":"odio","city": "Loures","location":"Taozhuang","postal_code":"2542-346","capacity":4368,"uid_supplier":168},
{"name":"eget","city": "Loures","location":"Nakhabino","postal_code":"2542-346","capacity":8049,"uid_supplier":169},
{"name":"quam","city": "Loures","location":"Zhenjiang","postal_code":"2542-346","capacity":8793,"uid_supplier":170},
{"name":"amet","city": "Loures","location":"Paccha","postal_code":"2542-346","capacity":9093,"uid_supplier":171},
{"name":"nulla","city": "Loures","location":"Ad Dīs ash Sharqīyah","postal_code":"2542-346","capacity":3539,"uid_supplier":172},
{"name":"maecenas","city": "Loures","location":"Mulawato","postal_code":"2542-346","capacity":6367,"uid_supplier":173},
{"name":"porttitor","city": "Loures","location":"Kladno","postal_code":"2542-346","capacity":665,"uid_supplier":174},
{"name":"ac","city": "Loures","location":"Sukaharja","postal_code":"2542-346","capacity":5042,"uid_supplier":175},
{"name":"sapien","city": "Loures","location":"Hengxi","postal_code":"2542-346","capacity":5028,"uid_supplier":176},
{"name":"scelerisque","city": "Loures","location":"Murtajih","postal_code":"2542-346","capacity":3477,"uid_supplier":177},
{"name":"lectus","city": "Loures","location":"R S","postal_code":"2542-346","capacity":3295,"uid_supplier":178},
{"name":"eget","city": "Loures","location":"Pidhaytsi","postal_code":"2542-346","capacity":2153,"uid_supplier":179},
{"name":"consequat","city": "Loures","location":"Santa Cruz","postal_code":"2542-346","capacity":742,"uid_supplier":180},
{"name":"semper","city": "Loures","location":"Anxi","postal_code":"2542-346","capacity":8653,"uid_supplier":181},
{"name":"feugiat","city": "Loures","location":"Tadrart","postal_code":"2542-346","capacity":3375,"uid_supplier":182},
{"name":"in","city": "Loures","location":"Shijiazhai","postal_code":"2542-346","capacity":6628,"uid_supplier":183},
{"name":"nulla","city": "Loures","location":"Marseille","postal_code":"2542-346","capacity":6510,"uid_supplier":184},
{"name":"potenti","city": "Loures","location":"Fómeque","postal_code":"2542-346","capacity":8502,"uid_supplier":185},
{"name":"est","city": "Loures","location":"Saint Petersburg","postal_code":"2542-346","capacity":2545,"uid_supplier":186},
{"name":"feugiat","city": "Loures","location":"Tiên Lãng","postal_code":"2542-346","capacity":5231,"uid_supplier":187},
{"name":"nam","city": "Loures","location":"San Bernardino","postal_code":"2542-346","capacity":8547,"uid_supplier":188},
{"name":"orci","city": "Loures","location":"Pechenizhyn","postal_code":"2542-346","capacity":8628,"uid_supplier":189},
{"name":"nisl","city": "Loures","location":"Carregado","postal_code":"2542-346","capacity":9437,"uid_supplier":190},
{"name":"in","city": "Loures","location":"Solna","postal_code":"2542-346","capacity":2658,"uid_supplier":191},
{"name":"diam","city": "Loures","location":"Cachadinha","postal_code":"2542-346","capacity":2024,"uid_supplier":192},
{"name":"turpis","city": "Loures","location":"Comodoro Rivadavia","postal_code":"2542-346","capacity":103,"uid_supplier":193},
{"name":"quam","city": "Loures","location":"União da Vitória","postal_code":"2542-346","capacity":5453,"uid_supplier":194},
{"name":"vestibulum","city": "Loures","location":"Saint Ann’s Bay","postal_code":"2542-346","capacity":2393,"uid_supplier":195},
{"name":"posuere","city": "Loures","location":"Nggalak","postal_code":"2542-346","capacity":4030,"uid_supplier":196},
{"name":"ipsum","city": "Loures","location":"Abastumani","postal_code":"2542-346","capacity":3735,"uid_supplier":197},
{"name":"morbi","city": "Loures","location":"Vilhena","postal_code":"2542-346","capacity":3184,"uid_supplier":198},
{"name":"nam","city": "Loures","location":"Huaping","postal_code":"2542-346","capacity":6363,"uid_supplier":199},
{"name":"in","city": "Loures","location":"Madura","postal_code":"2542-346","capacity":3515,"uid_supplier":200},
{"name":"amet","city": "Loures","location":"Taywanak Ilaya","postal_code":"2542-346","capacity":1996,"uid_supplier":201},
{"name":"cras","city": "Loures","location":"Santo Tomas","postal_code":"2542-346","capacity":5564,"uid_supplier":202},
{"name":"tellus","city": "Loures","location":"Bascaron","postal_code":"2542-346","capacity":9052,"uid_supplier":203},
{"name":"sem","city": "Loures","location":"Lokot’","postal_code":"2542-346","capacity":5208,"uid_supplier":204},
{"name":"tempus","city": "Loures","location":"Knoxville","postal_code":"2542-346","capacity":951,"uid_supplier":205},
{"name":"nulla","city": "Loures","location":"Cibalung","postal_code":"2542-346","capacity":7719,"uid_supplier":206},
{"name":"nulla","city": "Loures","location":"Manolo Fortich","postal_code":"2542-346","capacity":1827,"uid_supplier":207},
{"name":"augue","city": "Loures","location":"Nguigmi","postal_code":"2542-346","capacity":9957,"uid_supplier":208},
{"name":"nunc","city": "Loures","location":"Banjar Bucu","postal_code":"2542-346","capacity":7819,"uid_supplier":209},
{"name":"neque","city": "Loures","location":"Tulungrejo","postal_code":"2542-346","capacity":7662,"uid_supplier":210},
{"name":"justo","city": "Loures","location":"Ronneby","postal_code":"2542-346","capacity":2256,"uid_supplier":211},
{"name":"phasellus","city": "Loures","location":"Raphoe","postal_code":"2542-346","capacity":4564,"uid_supplier":212},
{"name":"pulvinar","city": "Loures","location":"Made","postal_code":"2542-346","capacity":6322,"uid_supplier":213},
{"name":"fermentum","city": "Loures","location":"Huaping","postal_code":"2542-346","capacity":1436,"uid_supplier":214},
{"name":"vel","city": "Loures","location":"Jan Kempdorp","postal_code":"2542-346","capacity":6541,"uid_supplier":215},
{"name":"maecenas","city": "Loures","location":"Uurainen","postal_code":"2542-346","capacity":485,"uid_supplier":216},
{"name":"nulla","city": "Loures","location":"Mendeleyevsk","postal_code":"2542-346","capacity":2885,"uid_supplier":217},
{"name":"ante","city": "Loures","location":"Sanom","postal_code":"2542-346","capacity":3549,"uid_supplier":218},
{"name":"non","city": "Loures","location":"Gaozhai","postal_code":"2542-346","capacity":7497,"uid_supplier":219},
{"name":"sed","city": "Loures","location":"Praia das Maçãs","postal_code":"2542-346","capacity":5893,"uid_supplier":220},
{"name":"quam","city": "Loures","location":"Longhe","postal_code":"2542-346","capacity":3213,"uid_supplier":221},
{"name":"orci","city": "Loures","location":"Banjar Sebual","postal_code":"2542-346","capacity":3787,"uid_supplier":222},
{"name":"sapien","city": "Loures","location":"Černelavci","postal_code":"2542-346","capacity":6240,"uid_supplier":223},
{"name":"aliquam","city": "Loures","location":"Lidu","postal_code":"2542-346","capacity":3209,"uid_supplier":224},
{"name":"quam","city": "Loures","location":"Chimbas","postal_code":"2542-346","capacity":912,"uid_supplier":225},
{"name":"ut","city": "Loures","location":"Lac-Brome","postal_code":"2542-346","capacity":5094,"uid_supplier":226},
{"name":"adipiscing","city": "Loures","location":"Muaralembu","postal_code":"2542-346","capacity":4735,"uid_supplier":227},
{"name":"dictumst","city": "Loures","location":"Kraljevo","postal_code":"2542-346","capacity":4399,"uid_supplier":228},
{"name":"turpis","city": "Loures","location":"Luoting","postal_code":"2542-346","capacity":7566,"uid_supplier":229},
{"name":"tortor","city": "Loures","location":"Lidian","postal_code":"2542-346","capacity":154,"uid_supplier":230},
{"name":"morbi","city": "Loures","location":"Nanyuan","postal_code":"2542-346","capacity":4908,"uid_supplier":231},
{"name":"lacus","city": "Loures","location":"Mishan","postal_code":"2542-346","capacity":5366,"uid_supplier":232},
{"name":"nunc","city": "Loures","location":"Abucay","postal_code":"2542-346","capacity":3284,"uid_supplier":233},
{"name":"sapien","city": "Loures","location":"Esmeralda","postal_code":"2542-346","capacity":1998,"uid_supplier":234},
{"name":"sodales","city": "Loures","location":"Sendang","postal_code":"2542-346","capacity":6813,"uid_supplier":235},
{"name":"non","city": "Loures","location":"Miandrarivo","postal_code":"2542-346","capacity":1826,"uid_supplier":236},
{"name":"aliquam","city": "Loures","location":"He’an","postal_code":"2542-346","capacity":5967,"uid_supplier":237},
{"name":"accumsan","city": "Loures","location":"Palompon","postal_code":"2542-346","capacity":4191,"uid_supplier":238},
{"name":"venenatis","city": "Loures","location":"Puteaux","postal_code":"2542-346","capacity":7841,"uid_supplier":239},
{"name":"interdum","city": "Loures","location":"Vila Fria","postal_code":"2542-346","capacity":8105,"uid_supplier":240},
{"name":"morbi","city": "Loures","location":"Alfonso","postal_code":"2542-346","capacity":4780,"uid_supplier":241},
{"name":"donec","city": "Loures","location":"Staraya Derevnya","postal_code":"2542-346","capacity":8828,"uid_supplier":242},
{"name":"sit","city": "Loures","location":"Maslog","postal_code":"2542-346","capacity":2896,"uid_supplier":243},
{"name":"a","city": "Loures","location":"Jambesari","postal_code":"2542-346","capacity":6684,"uid_supplier":244},
{"name":"amet","city": "Loures","location":"Kalýves Polygýrou","postal_code":"2542-346","capacity":7672,"uid_supplier":245},
{"name":"in","city": "Loures","location":"Sabang","postal_code":"2542-346","capacity":9303,"uid_supplier":246},
{"name":"vestibulum","city": "Loures","location":"Eci","postal_code":"2542-346","capacity":2145,"uid_supplier":247},
{"name":"in","city": "Loures","location":"Byera Village","postal_code":"2542-346","capacity":6457,"uid_supplier":248},
{"name":"pharetra","city": "Loures","location":"Wenchun","postal_code":"2542-346","capacity":3385,"uid_supplier":249},
{"name":"rhoncus","city": "Loures","location":"Charagua","postal_code":"2542-346","capacity":1369,"uid_supplier":250},
{"name":"pellentesque","city": "Loures","location":"Songhu","postal_code":"2542-346","capacity":3161,"uid_supplier":251},
{"name":"pede","city": "Loures","location":"Shagamu","postal_code":"2542-346","capacity":2855,"uid_supplier":252},
{"name":"rutrum","city": "Loures","location":"Peñal","postal_code":"2542-346","capacity":7816,"uid_supplier":253},
{"name":"pellentesque","city": "Loures","location":"Guandi","postal_code":"2542-346","capacity":1702,"uid_supplier":254},
{"name":"sapien","city": "Loures","location":"Sobrosa","postal_code":"2542-346","capacity":5976,"uid_supplier":255},
{"name":"integer","city": "Loures","location":"Vĩnh Thuận","postal_code":"2542-346","capacity":4576,"uid_supplier":256},
{"name":"orci","city": "Loures","location":"Saaban","postal_code":"2542-346","capacity":8599,"uid_supplier":257},
{"name":"lacus","city": "Loures","location":"Guia","postal_code":"2542-346","capacity":7797,"uid_supplier":258},
{"name":"amet","city": "Loures","location":"Sanhe","postal_code":"2542-346","capacity":6564,"uid_supplier":259},
{"name":"id","city": "Loures","location":"Mae Wang","postal_code":"2542-346","capacity":3281,"uid_supplier":260},
{"name":"pellentesque","city": "Loures","location":"Sattahip","postal_code":"2542-346","capacity":4959,"uid_supplier":261},
{"name":"mauris","city": "Loures","location":"Arenal","postal_code":"2542-346","capacity":4183,"uid_supplier":262},
{"name":"morbi","city": "Loures","location":"Bukabu","postal_code":"2542-346","capacity":2796,"uid_supplier":263},
{"name":"sollicitudin","city": "Loures","location":"Krajan","postal_code":"2542-346","capacity":7310,"uid_supplier":264},
{"name":"ac","city": "Loures","location":"Medina Estates","postal_code":"2542-346","capacity":1287,"uid_supplier":265},
{"name":"vestibulum","city": "Loures","location":"Jelisavac","postal_code":"2542-346","capacity":1787,"uid_supplier":266},
{"name":"purus","city": "Loures","location":"Topeka","postal_code":"2542-346","capacity":2564,"uid_supplier":267},
{"name":"nisi","city": "Loures","location":"Darłowo","postal_code":"2542-346","capacity":6517,"uid_supplier":268},
{"name":"a","city": "Loures","location":"Oslo","postal_code":"2542-346","capacity":2065,"uid_supplier":269},
{"name":"interdum","city": "Loures","location":"Banyue","postal_code":"2542-346","capacity":3537,"uid_supplier":270},
{"name":"primis","city": "Loures","location":"Cikujang","postal_code":"2542-346","capacity":8987,"uid_supplier":271},
{"name":"sed","city": "Loures","location":"Ruteng","postal_code":"2542-346","capacity":9577,"uid_supplier":272},
{"name":"magna","city": "Loures","location":"Bošnjaci","postal_code":"2542-346","capacity":9827,"uid_supplier":273},
{"name":"vestibulum","city": "Loures","location":"Cikadondongdesa","postal_code":"2542-346","capacity":8729,"uid_supplier":274},
{"name":"nibh","city": "Loures","location":"Cochrane","postal_code":"2542-346","capacity":3528,"uid_supplier":275},
{"name":"mauris","city": "Loures","location":"Baicheng","postal_code":"2542-346","capacity":1228,"uid_supplier":276},
{"name":"nam","city": "Loures","location":"Nueva Germania","postal_code":"2542-346","capacity":8822,"uid_supplier":277},
{"name":"felis","city": "Loures","location":"Dongshui","postal_code":"2542-346","capacity":69,"uid_supplier":278},
{"name":"nisi","city": "Loures","location":"Mufulira","postal_code":"2542-346","capacity":2730,"uid_supplier":279},
{"name":"ut","city": "Loures","location":"Banjar Peguyangan","postal_code":"2542-346","capacity":9724,"uid_supplier":280},
{"name":"eu","city": "Loures","location":"Itsukaichi","postal_code":"2542-346","capacity":8003,"uid_supplier":281},
{"name":"et","city": "Loures","location":"Kuntong","postal_code":"2542-346","capacity":6095,"uid_supplier":282},
{"name":"mattis","city": "Loures","location":"Weiyang","postal_code":"2542-346","capacity":7825,"uid_supplier":283},
{"name":"nulla","city": "Loures","location":"Gunziying","postal_code":"2542-346","capacity":3199,"uid_supplier":284},
{"name":"orci","city": "Loures","location":"Garoua","postal_code":"2542-346","capacity":7493,"uid_supplier":285},
{"name":"est","city": "Loures","location":"Anggana","postal_code":"2542-346","capacity":638,"uid_supplier":286},
{"name":"tempus","city": "Loures","location":"Jungutbatu Kaja Dua","postal_code":"2542-346","capacity":5254,"uid_supplier":287},
{"name":"aliquet","city": "Loures","location":"Saint-Paul","postal_code":"2542-346","capacity":3103,"uid_supplier":288},
{"name":"morbi","city": "Loures","location":"Krzczonów","postal_code":"2542-346","capacity":6059,"uid_supplier":289},
{"name":"orci","city": "Loures","location":"Messina","postal_code":"2542-346","capacity":1995,"uid_supplier":290},
{"name":"odio","city": "Loures","location":"Bordeaux","postal_code":"2542-346","capacity":9359,"uid_supplier":291},
{"name":"platea","city": "Loures","location":"Man","postal_code":"2542-346","capacity":1437,"uid_supplier":292},
{"name":"proin","city": "Loures","location":"Jinggan","postal_code":"2542-346","capacity":6211,"uid_supplier":293},
{"name":"at","city": "Loures","location":"Neyvo-Rudyanka","postal_code":"2542-346","capacity":3381,"uid_supplier":294},
{"name":"sem","city": "Loures","location":"Osogbo","postal_code":"2542-346","capacity":5662,"uid_supplier":295},
{"name":"platea","city": "Loures","location":"Bulbul","postal_code":"2542-346","capacity":2531,"uid_supplier":296},
{"name":"ut","city": "Loures","location":"Cruz","postal_code":"2542-346","capacity":9230,"uid_supplier":297},
{"name":"justo","city": "Loures","location":"Luchingu","postal_code":"2542-346","capacity":5888,"uid_supplier":298},
{"name":"at","city": "Loures","location":"Yongledian","postal_code":"2542-346","capacity":9724,"uid_supplier":299},
{"name":"mauris","city": "Loures","location":"Xiaoqi","postal_code":"2542-346","capacity":7543,"uid_supplier":300},
{"name":"aenean","city": "Loures","location":"Thanatpin","postal_code":"2542-346","capacity":8850,"uid_supplier":301},
{"name":"leo","city": "Loures","location":"La Labor","postal_code":"2542-346","capacity":3955,"uid_supplier":302},
{"name":"curae","city": "Loures","location":"Hekou","postal_code":"2542-346","capacity":3255,"uid_supplier":303},
{"name":"auctor","city": "Loures","location":"Calvão","postal_code":"2542-346","capacity":2098,"uid_supplier":304},
{"name":"libero","city": "Loures","location":"Quinua","postal_code":"2542-346","capacity":4987,"uid_supplier":305},
{"name":"augue","city": "Loures","location":"Yi’an","postal_code":"2542-346","capacity":3500,"uid_supplier":306},
{"name":"lacus","city": "Loures","location":"Quitilipi","postal_code":"2542-346","capacity":7314,"uid_supplier":307},
{"name":"quis","city": "Loures","location":"Klonowa","postal_code":"2542-346","capacity":1348,"uid_supplier":308},
{"name":"quis","city": "Loures","location":"Pontevedra","postal_code":"2542-346","capacity":2090,"uid_supplier":309},
{"name":"velit","city": "Loures","location":"Lukou","postal_code":"2542-346","capacity":1110,"uid_supplier":310},
{"name":"nisl","city": "Loures","location":"Trollhättan","postal_code":"2542-346","capacity":9730,"uid_supplier":311},
{"name":"sed","city": "Loures","location":"Ulaan Khat","postal_code":"2542-346","capacity":424,"uid_supplier":312},
{"name":"lacus","city": "Loures","location":"Tayirove","postal_code":"2542-346","capacity":128,"uid_supplier":313},
{"name":"rutrum","city": "Loures","location":"Halamendu","postal_code":"2542-346","capacity":4417,"uid_supplier":314},
{"name":"diam","city": "Loures","location":"Vallentuna","postal_code":"2542-346","capacity":9921,"uid_supplier":315},
{"name":"elementum","city": "Loures","location":"Pakenjeng","postal_code":"2542-346","capacity":6542,"uid_supplier":316},
{"name":"pede","city": "Loures","location":"Guangpu","postal_code":"2542-346","capacity":2266,"uid_supplier":317},
{"name":"ipsum","city": "Loures","location":"Medvezh’yegorsk","postal_code":"2542-346","capacity":6376,"uid_supplier":318},
{"name":"consectetuer","city": "Loures","location":"Bulgan","postal_code":"2542-346","capacity":1601,"uid_supplier":319},
{"name":"proin","city": "Loures","location":"Bandaran","postal_code":"2542-346","capacity":830,"uid_supplier":320},
{"name":"amet","city": "Loures","location":"Pagarbatu","postal_code":"2542-346","capacity":1229,"uid_supplier":321},
{"name":"turpis","city": "Loures","location":"Tandou","postal_code":"2542-346","capacity":3257,"uid_supplier":322},
{"name":"quam","city": "Loures","location":"Qingjiangqiao","postal_code":"2542-346","capacity":2967,"uid_supplier":323},
{"name":"et","city": "Loures","location":"Lokorae","postal_code":"2542-346","capacity":7008,"uid_supplier":324},
{"name":"morbi","city": "Loures","location":"Pita Kotte","postal_code":"2542-346","capacity":9310,"uid_supplier":325},
{"name":"proin","city": "Loures","location":"Wojaszówka","postal_code":"2542-346","capacity":3344,"uid_supplier":326},
{"name":"ante","city": "Loures","location":"Nchelenge","postal_code":"2542-346","capacity":8394,"uid_supplier":327},
{"name":"donec","city": "Loures","location":"Pedrogão","postal_code":"2542-346","capacity":4175,"uid_supplier":328},
{"name":"erat","city": "Loures","location":"Guadalupe","postal_code":"2542-346","capacity":6811,"uid_supplier":329},
{"name":"lectus","city": "Loures","location":"Mechrá Belqsiri","postal_code":"2542-346","capacity":9257,"uid_supplier":330},
{"name":"amet","city": "Loures","location":"Maria","postal_code":"2542-346","capacity":4761,"uid_supplier":331},
{"name":"amet","city": "Loures","location":"Shangde","postal_code":"2542-346","capacity":8861,"uid_supplier":332},
{"name":"etiam","city": "Loures","location":"Alua","postal_code":"2542-346","capacity":1702,"uid_supplier":333},
{"name":"cursus","city": "Loures","location":"Jieshan","postal_code":"2542-346","capacity":8739,"uid_supplier":334},
{"name":"ultrices","city": "Loures","location":"Chemnitz","postal_code":"2542-346","capacity":4800,"uid_supplier":335},
{"name":"id","city": "Loures","location":"Tagog","postal_code":"2542-346","capacity":9762,"uid_supplier":336},
{"name":"aliquam","city": "Loures","location":"Godziszów Pierwszy","postal_code":"2542-346","capacity":8083,"uid_supplier":337},
{"name":"nullam","city": "Loures","location":"Cristalina","postal_code":"2542-346","capacity":7917,"uid_supplier":338},
{"name":"penatibus","city": "Loures","location":"Kamenka","postal_code":"2542-346","capacity":8126,"uid_supplier":339},
{"name":"lacinia","city": "Loures","location":"Pulo","postal_code":"2542-346","capacity":8597,"uid_supplier":340},
{"name":"lacus","city": "Loures","location":"Tirhanimîne","postal_code":"2542-346","capacity":9287,"uid_supplier":341},
{"name":"commodo","city": "Loures","location":"Azua","postal_code":"2542-346","capacity":6939,"uid_supplier":342},
{"name":"pellentesque","city": "Loures","location":"Aourir","postal_code":"2542-346","capacity":3660,"uid_supplier":343},
{"name":"nulla","city": "Loures","location":"Rungis","postal_code":"2542-346","capacity":8338,"uid_supplier":344},
{"name":"nisi","city": "Loures","location":"Lobuk","postal_code":"2542-346","capacity":4788,"uid_supplier":345},
{"name":"habitasse","city": "Loures","location":"Vila Nova de Milfontes","postal_code":"2542-346","capacity":7879,"uid_supplier":346},
{"name":"ac","city": "Loures","location":"Anibare","postal_code":"2542-346","capacity":4032,"uid_supplier":347},
{"name":"velit","city": "Loures","location":"Jiahe","postal_code":"2542-346","capacity":5776,"uid_supplier":348},
{"name":"porttitor","city": "Loures","location":"Nevinnomyssk","postal_code":"2542-346","capacity":2470,"uid_supplier":349},
{"name":"sed","city": "Loures","location":"Yurkivka","postal_code":"2542-346","capacity":6227,"uid_supplier":350},
{"name":"morbi","city": "Loures","location":"Želiv","postal_code":"2542-346","capacity":6114,"uid_supplier":351},
{"name":"in","city": "Loures","location":"Marseille","postal_code":"2542-346","capacity":633,"uid_supplier":352},
{"name":"tortor","city": "Loures","location":"Caucasia","postal_code":"2542-346","capacity":6811,"uid_supplier":353},
{"name":"cras","city": "Loures","location":"Suicheng","postal_code":"2542-346","capacity":1718,"uid_supplier":354},
{"name":"augue","city": "Loures","location":"Ban Ratsada","postal_code":"2542-346","capacity":5424,"uid_supplier":355},
{"name":"ut","city": "Loures","location":"Seixas do Douro","postal_code":"2542-346","capacity":1930,"uid_supplier":356},
{"name":"nulla","city": "Loures","location":"Xitou","postal_code":"2542-346","capacity":882,"uid_supplier":357},
{"name":"lectus","city": "Loures","location":"Zhaowu","postal_code":"2542-346","capacity":4230,"uid_supplier":358},
{"name":"bibendum","city": "Loures","location":"Nong Hi","postal_code":"2542-346","capacity":3112,"uid_supplier":359},
{"name":"augue","city": "Loures","location":"Wolin","postal_code":"2542-346","capacity":6462,"uid_supplier":360},
{"name":"pede","city": "Loures","location":"Dumaguil","postal_code":"2542-346","capacity":1189,"uid_supplier":361},
{"name":"vestibulum","city": "Loures","location":"Velký Týnec","postal_code":"2542-346","capacity":1719,"uid_supplier":362},
{"name":"a","city": "Loures","location":"Mamfe","postal_code":"2542-346","capacity":8489,"uid_supplier":363},
{"name":"molestie","city": "Loures","location":"Nakanojōmachi","postal_code":"2542-346","capacity":6744,"uid_supplier":364},
{"name":"lorem","city": "Loures","location":"Chongmin","postal_code":"2542-346","capacity":7068,"uid_supplier":365},
{"name":"volutpat","city": "Loures","location":"Vallenar","postal_code":"2542-346","capacity":110,"uid_supplier":366},
{"name":"erat","city": "Loures","location":"Kataba","postal_code":"2542-346","capacity":9202,"uid_supplier":367},
{"name":"purus","city": "Loures","location":"Aravissós","postal_code":"2542-346","capacity":2339,"uid_supplier":368},
{"name":"porttitor","city": "Loures","location":"Ntaur Satu","postal_code":"2542-346","capacity":6070,"uid_supplier":369},
{"name":"in","city": "Loures","location":"Mombok","postal_code":"2542-346","capacity":6299,"uid_supplier":370},
{"name":"et","city": "Loures","location":"Järvakandi","postal_code":"2542-346","capacity":8192,"uid_supplier":371},
{"name":"lacinia","city": "Loures","location":"Shuyuan Zhen","postal_code":"2542-346","capacity":6690,"uid_supplier":372},
{"name":"orci","city": "Loures","location":"Camiling","postal_code":"2542-346","capacity":6391,"uid_supplier":373},
{"name":"nibh","city": "Loures","location":"Stockholm","postal_code":"2542-346","capacity":8589,"uid_supplier":374},
{"name":"curabitur","city": "Loures","location":"Zhiryatino","postal_code":"2542-346","capacity":4053,"uid_supplier":375},
{"name":"mi","city": "Loures","location":"Naji","postal_code":"2542-346","capacity":2214,"uid_supplier":376},
{"name":"curabitur","city": "Loures","location":"Jiyang","postal_code":"2542-346","capacity":5295,"uid_supplier":377},
{"name":"molestie","city": "Loures","location":"Tangnan","postal_code":"2542-346","capacity":5166,"uid_supplier":378},
{"name":"sit","city": "Loures","location":"Wenshang","postal_code":"2542-346","capacity":1017,"uid_supplier":379},
{"name":"dui","city": "Loures","location":"Niños Heroes","postal_code":"2542-346","capacity":4574,"uid_supplier":380},
{"name":"morbi","city": "Loures","location":"Tohautu","postal_code":"2542-346","capacity":5163,"uid_supplier":381},
{"name":"consequat","city": "Loures","location":"Jiangchang","postal_code":"2542-346","capacity":6217,"uid_supplier":382},
{"name":"luctus","city": "Loures","location":"Wujiabao","postal_code":"2542-346","capacity":7932,"uid_supplier":383},
{"name":"orci","city": "Loures","location":"Beixin","postal_code":"2542-346","capacity":8935,"uid_supplier":384},
{"name":"rutrum","city": "Loures","location":"Puspajaya","postal_code":"2542-346","capacity":7543,"uid_supplier":385},
{"name":"tellus","city": "Loures","location":"Gurinai","postal_code":"2542-346","capacity":2400,"uid_supplier":386},
{"name":"luctus","city": "Loures","location":"Topolovgrad","postal_code":"2542-346","capacity":6115,"uid_supplier":387},
{"name":"erat","city": "Loures","location":"Maputsoe","postal_code":"2542-346","capacity":2822,"uid_supplier":388},
{"name":"consequat","city": "Loures","location":"Budayuan","postal_code":"2542-346","capacity":166,"uid_supplier":389},
{"name":"leo","city": "Loures","location":"Mapou","postal_code":"2542-346","capacity":6488,"uid_supplier":390},
{"name":"nisi","city": "Loures","location":"Kadurahayu","postal_code":"2542-346","capacity":8137,"uid_supplier":391},
{"name":"suspendisse","city": "Loures","location":"Rudnya","postal_code":"2542-346","capacity":5160,"uid_supplier":392},
{"name":"pulvinar","city": "Loures","location":"Koungou","postal_code":"2542-346","capacity":5626,"uid_supplier":393},
{"name":"gravida","city": "Loures","location":"Porvenir","postal_code":"2542-346","capacity":7934,"uid_supplier":394},
{"name":"quam","city": "Loures","location":"Palilula","postal_code":"2542-346","capacity":6282,"uid_supplier":395},
{"name":"sed","city": "Loures","location":"Avellaneda","postal_code":"2542-346","capacity":3721,"uid_supplier":396},
{"name":"molestie","city": "Loures","location":"Pulilan","postal_code":"2542-346","capacity":4920,"uid_supplier":397},
{"name":"sed","city": "Loures","location":"Eskilstuna","postal_code":"2542-346","capacity":3970,"uid_supplier":398},
{"name":"condimentum","city": "Loures","location":"Richards Bay","postal_code":"2542-346","capacity":884,"uid_supplier":399},
{"name":"sit","city": "Loures","location":"Atikokan","postal_code":"2542-346","capacity":3130,"uid_supplier":400},
{"name":"diam","city": "Loures","location":"Gwaram","postal_code":"2542-346","capacity":7427,"uid_supplier":401},
{"name":"metus","city": "Loures","location":"Larreynaga","postal_code":"2542-346","capacity":1846,"uid_supplier":402},
{"name":"venenatis","city": "Loures","location":"Campoverde","postal_code":"2542-346","capacity":3722,"uid_supplier":403},
{"name":"accumsan","city": "Loures","location":"Huangqiang","postal_code":"2542-346","capacity":6982,"uid_supplier":404},
{"name":"curabitur","city": "Loures","location":"Mayisyan","postal_code":"2542-346","capacity":4796,"uid_supplier":405},
{"name":"sodales","city": "Loures","location":"Duwaktenggi","postal_code":"2542-346","capacity":5218,"uid_supplier":406},
{"name":"pellentesque","city": "Loures","location":"Ponggok","postal_code":"2542-346","capacity":5558,"uid_supplier":407},
{"name":"pharetra","city": "Loures","location":"Älvdalen","postal_code":"2542-346","capacity":209,"uid_supplier":408},
{"name":"orci","city": "Loures","location":"Nový Hrozenkov","postal_code":"2542-346","capacity":62,"uid_supplier":409},
{"name":"volutpat","city": "Loures","location":"Huskvarna","postal_code":"2542-346","capacity":6518,"uid_supplier":410},
{"name":"pulvinar","city": "Loures","location":"Gnojnica","postal_code":"2542-346","capacity":6280,"uid_supplier":411},
{"name":"erat","city": "Loures","location":"Paris 15","postal_code":"2542-346","capacity":1933,"uid_supplier":412},
{"name":"morbi","city": "Loures","location":"Gempolan Wetan","postal_code":"2542-346","capacity":1824,"uid_supplier":413},
{"name":"nec","city": "Loures","location":"Gornorechenskiy","postal_code":"2542-346","capacity":9254,"uid_supplier":414},
{"name":"porttitor","city": "Loures","location":"Maño","postal_code":"2542-346","capacity":1055,"uid_supplier":415},
{"name":"donec","city": "Loures","location":"Cravinhos","postal_code":"2542-346","capacity":7793,"uid_supplier":416},
{"name":"tortor","city": "Loures","location":"Al ‘Alamayn","postal_code":"2542-346","capacity":3339,"uid_supplier":417},
{"name":"sem","city": "Loures","location":"Aipe","postal_code":"2542-346","capacity":232,"uid_supplier":418},
{"name":"etiam","city": "Loures","location":"Carumas","postal_code":"2542-346","capacity":7835,"uid_supplier":419},
{"name":"habitasse","city": "Loures","location":"Newport","postal_code":"2542-346","capacity":5978,"uid_supplier":420},
{"name":"praesent","city": "Loures","location":"Foxton","postal_code":"2542-346","capacity":4516,"uid_supplier":421},
{"name":"arcu","city": "Loures","location":"Évlalo","postal_code":"2542-346","capacity":3749,"uid_supplier":422},
{"name":"volutpat","city": "Loures","location":"Barra de São Francisco","postal_code":"2542-346","capacity":8144,"uid_supplier":423},
{"name":"consequat","city": "Loures","location":"Rejanegara","postal_code":"2542-346","capacity":2025,"uid_supplier":424},
{"name":"non","city": "Loures","location":"Sehwān","postal_code":"2542-346","capacity":1235,"uid_supplier":425},
{"name":"vel","city": "Loures","location":"Nice","postal_code":"2542-346","capacity":2081,"uid_supplier":426},
{"name":"nam","city": "Loures","location":"Xiangcunxiang","postal_code":"2542-346","capacity":5353,"uid_supplier":427},
{"name":"augue","city": "Loures","location":"Fengcheng","postal_code":"2542-346","capacity":1413,"uid_supplier":428},
{"name":"vel","city": "Loures","location":"Przybiernów","postal_code":"2542-346","capacity":4068,"uid_supplier":429},
{"name":"habitasse","city": "Loures","location":"Banes","postal_code":"2542-346","capacity":3444,"uid_supplier":430},
{"name":"justo","city": "Loures","location":"Kodinsk","postal_code":"2542-346","capacity":7032,"uid_supplier":431},
{"name":"ultrices","city": "Loures","location":"Llacanora","postal_code":"2542-346","capacity":7976,"uid_supplier":432},
{"name":"duis","city": "Loures","location":"Segbwema","postal_code":"2542-346","capacity":1336,"uid_supplier":433},
{"name":"interdum","city": "Loures","location":"Lazaro Cardenas","postal_code":"2542-346","capacity":4059,"uid_supplier":434},
{"name":"facilisi","city": "Loures","location":"Carhuac","postal_code":"2542-346","capacity":1767,"uid_supplier":435},
{"name":"accumsan","city": "Loures","location":"Bocos","postal_code":"2542-346","capacity":9993,"uid_supplier":436},
{"name":"morbi","city": "Loures","location":"Jahrom","postal_code":"2542-346","capacity":9776,"uid_supplier":437},
{"name":"morbi","city": "Loures","location":"Žďár nad Sázavou Druhy","postal_code":"2542-346","capacity":3023,"uid_supplier":438},
{"name":"morbi","city": "Loures","location":"Luau","postal_code":"2542-346","capacity":4588,"uid_supplier":439},
{"name":"sit","city": "Loures","location":"Beihuaidian","postal_code":"2542-346","capacity":3301,"uid_supplier":440},
{"name":"posuere","city": "Loures","location":"Eadestown","postal_code":"2542-346","capacity":7923,"uid_supplier":441},
{"name":"ante","city": "Loures","location":"Wangchuanchang","postal_code":"2542-346","capacity":1611,"uid_supplier":442},
{"name":"justo","city": "Loures","location":"Bondoboghila","postal_code":"2542-346","capacity":8154,"uid_supplier":443},
{"name":"id","city": "Loures","location":"Sterlibashevo","postal_code":"2542-346","capacity":2063,"uid_supplier":444},
{"name":"nonummy","city": "Loures","location":"Maomiaoji","postal_code":"2542-346","capacity":8554,"uid_supplier":445},
{"name":"eu","city": "Loures","location":"Bouaflé","postal_code":"2542-346","capacity":5725,"uid_supplier":446},
{"name":"posuere","city": "Loures","location":"Salvacion","postal_code":"2542-346","capacity":2561,"uid_supplier":447},
{"name":"hac","city": "Loures","location":"Guápiles","postal_code":"2542-346","capacity":1130,"uid_supplier":448},
{"name":"scelerisque","city": "Loures","location":"Huangmu","postal_code":"2542-346","capacity":9411,"uid_supplier":449},
{"name":"non","city": "Loures","location":"Bolgar","postal_code":"2542-346","capacity":5110,"uid_supplier":450},
{"name":"erat","city": "Loures","location":"Novokubansk","postal_code":"2542-346","capacity":9401,"uid_supplier":451},
{"name":"integer","city": "Loures","location":"Mangaran","postal_code":"2542-346","capacity":7343,"uid_supplier":452},
{"name":"nec","city": "Loures","location":"Babakantugu","postal_code":"2542-346","capacity":8354,"uid_supplier":453},
{"name":"scelerisque","city": "Loures","location":"Nianba","postal_code":"2542-346","capacity":529,"uid_supplier":454},
{"name":"erat","city": "Loures","location":"Lowayu","postal_code":"2542-346","capacity":8076,"uid_supplier":455},
{"name":"libero","city": "Loures","location":"Saguiaran","postal_code":"2542-346","capacity":6747,"uid_supplier":456},
{"name":"adipiscing","city": "Loures","location":"Harbour Breton","postal_code":"2542-346","capacity":3682,"uid_supplier":457},
{"name":"ac","city": "Loures","location":"Sidem","postal_code":"2542-346","capacity":3088,"uid_supplier":458},
{"name":"quis","city": "Loures","location":"Maluko","postal_code":"2542-346","capacity":3966,"uid_supplier":459},
{"name":"eget","city": "Loures","location":"Qiping","postal_code":"2542-346","capacity":8183,"uid_supplier":460},
{"name":"dapibus","city": "Loures","location":"Dasha","postal_code":"2542-346","capacity":5915,"uid_supplier":461},
{"name":"quis","city": "Loures","location":"Hässleholm","postal_code":"2542-346","capacity":6746,"uid_supplier":462},
{"name":"vestibulum","city": "Loures","location":"Kranuan","postal_code":"2542-346","capacity":5968,"uid_supplier":463},
{"name":"molestie","city": "Loures","location":"Maubin","postal_code":"2542-346","capacity":3442,"uid_supplier":464},
{"name":"sapien","city": "Loures","location":"Goragorskiy","postal_code":"2542-346","capacity":9143,"uid_supplier":465},
{"name":"vulputate","city": "Loures","location":"Bangad","postal_code":"2542-346","capacity":4585,"uid_supplier":466},
{"name":"tortor","city": "Loures","location":"Maquanzhen","postal_code":"2542-346","capacity":9084,"uid_supplier":467},
{"name":"mi","city": "Loures","location":"Bystra","postal_code":"2542-346","capacity":2484,"uid_supplier":468},
{"name":"turpis","city": "Loures","location":"Maseru","postal_code":"2542-346","capacity":2526,"uid_supplier":469},
{"name":"aliquam","city": "Loures","location":"Igrim","postal_code":"2542-346","capacity":5969,"uid_supplier":470},
{"name":"elementum","city": "Loures","location":"Avaré","postal_code":"2542-346","capacity":7561,"uid_supplier":471},
{"name":"in","city": "Loures","location":"Kibuku","postal_code":"2542-346","capacity":5215,"uid_supplier":472},
{"name":"parturient","city": "Loures","location":"Şanā’","postal_code":"2542-346","capacity":4446,"uid_supplier":473},
{"name":"vel","city": "Loures","location":"Sel’tso","postal_code":"2542-346","capacity":8011,"uid_supplier":474},
{"name":"nibh","city": "Loures","location":"Komprachcice","postal_code":"2542-346","capacity":391,"uid_supplier":475},
{"name":"morbi","city": "Loures","location":"Luoqiao","postal_code":"2542-346","capacity":6901,"uid_supplier":476},
{"name":"nibh","city": "Loures","location":"Buenos Aires","postal_code":"2542-346","capacity":9651,"uid_supplier":477},
{"name":"suscipit","city": "Loures","location":"Cabo de Vila","postal_code":"2542-346","capacity":914,"uid_supplier":478},
{"name":"fusce","city": "Loures","location":"Stupsk","postal_code":"2542-346","capacity":8923,"uid_supplier":479},
{"name":"aliquet","city": "Loures","location":"Nikol’sk","postal_code":"2542-346","capacity":4192,"uid_supplier":480},
{"name":"quisque","city": "Loures","location":"Schirmeck","postal_code":"2542-346","capacity":6480,"uid_supplier":481},
{"name":"aenean","city": "Loures","location":"Liuheng","postal_code":"2542-346","capacity":5863,"uid_supplier":482},
{"name":"consequat","city": "Loures","location":"Grzęska","postal_code":"2542-346","capacity":5796,"uid_supplier":483},
{"name":"ipsum","city": "Loures","location":"Phú Mỹ","postal_code":"2542-346","capacity":1895,"uid_supplier":484},
{"name":"id","city": "Loures","location":"Malinaw","postal_code":"2542-346","capacity":4448,"uid_supplier":485},
{"name":"hac","city": "Loures","location":"Paris 12","postal_code":"2542-346","capacity":5193,"uid_supplier":486},
{"name":"vestibulum","city": "Loures","location":"Alingsås","postal_code":"2542-346","capacity":1276,"uid_supplier":487},
{"name":"ultrices","city": "Loures","location":"Xintai","postal_code":"2542-346","capacity":2298,"uid_supplier":488},
{"name":"tortor","city": "Loures","location":"Hukou","postal_code":"2542-346","capacity":1497,"uid_supplier":489},
{"name":"ultrices","city": "Loures","location":"Al Bāriqīyah","postal_code":"2542-346","capacity":2755,"uid_supplier":490},
{"name":"lobortis","city": "Loures","location":"San Lorenzo","postal_code":"2542-346","capacity":6465,"uid_supplier":491},
{"name":"vel","city": "Loures","location":"Cikulina","postal_code":"2542-346","capacity":1311,"uid_supplier":492},
{"name":"quisque","city": "Loures","location":"Indianapolis","postal_code":"2542-346","capacity":4709,"uid_supplier":493},
{"name":"aenean","city": "Loures","location":"Louisville","postal_code":"2542-346","capacity":8483,"uid_supplier":494},
{"name":"tellus","city": "Loures","location":"Pancoran","postal_code":"2542-346","capacity":6184,"uid_supplier":495},
{"name":"convallis","city": "Loures","location":"Pyetrykaw","postal_code":"2542-346","capacity":1822,"uid_supplier":496},
{"name":"tristique","city": "Loures","location":"Tonosí","postal_code":"2542-346","capacity":5268,"uid_supplier":497},
{"name":"proin","city": "Loures","location":"Chalamarca","postal_code":"2542-346","capacity":8547,"uid_supplier":498},
{"name":"justo","city": "Loures","location":"Tacoma","postal_code":"2542-346","capacity":152,"uid_supplier":499},
{"name":"aenean","city": "Loures","location":"Cobre","postal_code":"2542-346","capacity":2558,"uid_supplier":500},
{"name":"tellus","city": "Loures","location":"Killam","postal_code":"2542-346","capacity":2668,"uid_supplier":501},
{"name":"sed","city": "Loures","location":"Jabranti","postal_code":"2542-346","capacity":4128,"uid_supplier":502},
{"name":"nulla","city": "Loures","location":"San Antonio","postal_code":"2542-346","capacity":710,"uid_supplier":503},
{"name":"elit","city": "Loures","location":"Qinggang","postal_code":"2542-346","capacity":7698,"uid_supplier":504},
{"name":"faucibus","city": "Loures","location":"Bokor","postal_code":"2542-346","capacity":6811,"uid_supplier":505},
{"name":"volutpat","city": "Loures","location":"Tlogowetan","postal_code":"2542-346","capacity":3561,"uid_supplier":506},
{"name":"leo","city": "Loures","location":"Nanterre","postal_code":"2542-346","capacity":4410,"uid_supplier":507},
{"name":"sapien","city": "Loures","location":"Aradac","postal_code":"2542-346","capacity":6733,"uid_supplier":508},
{"name":"augue","city": "Loures","location":"Mont-Tremblant","postal_code":"2542-346","capacity":4868,"uid_supplier":509},
{"name":"aliquam","city": "Loures","location":"Sucre","postal_code":"2542-346","capacity":6379,"uid_supplier":510},
{"name":"lorem","city": "Loures","location":"Hobart","postal_code":"2542-346","capacity":8454,"uid_supplier":511},
{"name":"ante","city": "Loures","location":"Baler Baleagung","postal_code":"2542-346","capacity":2173,"uid_supplier":512},
{"name":"etiam","city": "Loures","location":"Wanurian","postal_code":"2542-346","capacity":4611,"uid_supplier":513},
{"name":"primis","city": "Loures","location":"Yongjiahe","postal_code":"2542-346","capacity":8023,"uid_supplier":514},
{"name":"sit","city": "Loures","location":"Orleans","postal_code":"2542-346","capacity":2717,"uid_supplier":515},
{"name":"neque","city": "Loures","location":"Tbêng Méanchey","postal_code":"2542-346","capacity":7515,"uid_supplier":516},
{"name":"nulla","city": "Loures","location":"Laguna Salada","postal_code":"2542-346","capacity":4217,"uid_supplier":517},
{"name":"non","city": "Loures","location":"Laau","postal_code":"2542-346","capacity":6328,"uid_supplier":518},
{"name":"nisl","city": "Loures","location":"Pnikut","postal_code":"2542-346","capacity":4151,"uid_supplier":519},
{"name":"justo","city": "Loures","location":"Lazaro Cardenas","postal_code":"2542-346","capacity":7367,"uid_supplier":520},
{"name":"vulputate","city": "Loures","location":"Gutang","postal_code":"2542-346","capacity":1931,"uid_supplier":521},
{"name":"lorem","city": "Loures","location":"Acobamba","postal_code":"2542-346","capacity":822,"uid_supplier":522},
{"name":"ipsum","city": "Loures","location":"Chlewiska","postal_code":"2542-346","capacity":5676,"uid_supplier":523},
{"name":"suspendisse","city": "Loures","location":"Shitang","postal_code":"2542-346","capacity":1470,"uid_supplier":524},
{"name":"id","city": "Loures","location":"Créteil","postal_code":"2542-346","capacity":3815,"uid_supplier":525},
{"name":"dapibus","city": "Loures","location":"Nueva Fuerza","postal_code":"2542-346","capacity":3238,"uid_supplier":526},
{"name":"dis","city": "Loures","location":"Dallas","postal_code":"2542-346","capacity":1685,"uid_supplier":527},
{"name":"tortor","city": "Loures","location":"Ar Rawḑ","postal_code":"2542-346","capacity":5835,"uid_supplier":528},
{"name":"risus","city": "Loures","location":"San Rafael","postal_code":"2542-346","capacity":528,"uid_supplier":529},
{"name":"duis","city": "Loures","location":"Mamurras","postal_code":"2542-346","capacity":7213,"uid_supplier":530},
{"name":"in","city": "Loures","location":"Svalyava","postal_code":"2542-346","capacity":4603,"uid_supplier":531},
{"name":"sed","city": "Loures","location":"Minien East","postal_code":"2542-346","capacity":6997,"uid_supplier":532},
{"name":"eu","city": "Loures","location":"Shuanghe","postal_code":"2542-346","capacity":8519,"uid_supplier":533},
{"name":"cursus","city": "Loures","location":"Rönninge","postal_code":"2542-346","capacity":1525,"uid_supplier":534},
{"name":"velit","city": "Loures","location":"Helin","postal_code":"2542-346","capacity":7651,"uid_supplier":535},
{"name":"id","city": "Loures","location":"Halmstad","postal_code":"2542-346","capacity":2198,"uid_supplier":536},
{"name":"ultrices","city": "Loures","location":"Kamenický Šenov","postal_code":"2542-346","capacity":5878,"uid_supplier":537},
{"name":"ipsum","city": "Loures","location":"Ku‘aydinah","postal_code":"2542-346","capacity":4477,"uid_supplier":538},
{"name":"id","city": "Loures","location":"Don Carlos","postal_code":"2542-346","capacity":427,"uid_supplier":539},
{"name":"nulla","city": "Loures","location":"Lidingö","postal_code":"2542-346","capacity":7966,"uid_supplier":540},
{"name":"praesent","city": "Loures","location":"Magomeni","postal_code":"2542-346","capacity":2186,"uid_supplier":541},
{"name":"ut","city": "Loures","location":"Kulia Village","postal_code":"2542-346","capacity":3831,"uid_supplier":542},
{"name":"sit","city": "Loures","location":"Tõrva","postal_code":"2542-346","capacity":7043,"uid_supplier":543},
{"name":"non","city": "Loures","location":"Linköping","postal_code":"2542-346","capacity":7983,"uid_supplier":544},
{"name":"varius","city": "Loures","location":"Maloco","postal_code":"2542-346","capacity":490,"uid_supplier":545},
{"name":"duis","city": "Loures","location":"Gourcy","postal_code":"2542-346","capacity":1160,"uid_supplier":546},
{"name":"lacinia","city": "Loures","location":"Anyang","postal_code":"2542-346","capacity":3302,"uid_supplier":547},
{"name":"elit","city": "Loures","location":"Hegarmulya","postal_code":"2542-346","capacity":2450,"uid_supplier":548},
{"name":"dolor","city": "Loures","location":"Kota Kinabalu","postal_code":"2542-346","capacity":1962,"uid_supplier":549},
{"name":"erat","city": "Loures","location":"Inabaan Sur","postal_code":"2542-346","capacity":7458,"uid_supplier":550},
{"name":"amet","city": "Loures","location":"Kavajë","postal_code":"2542-346","capacity":1044,"uid_supplier":551},
{"name":"eget","city": "Loures","location":"Sifangxi","postal_code":"2542-346","capacity":8591,"uid_supplier":552},
{"name":"libero","city": "Loures","location":"Karabudakhkent","postal_code":"2542-346","capacity":6597,"uid_supplier":553},
{"name":"vitae","city": "Loures","location":"Bang Bon","postal_code":"2542-346","capacity":4304,"uid_supplier":554},
{"name":"donec","city": "Loures","location":"Barbacoas","postal_code":"2542-346","capacity":8425,"uid_supplier":555},
{"name":"libero","city": "Loures","location":"Jinping","postal_code":"2542-346","capacity":5360,"uid_supplier":556},
{"name":"donec","city": "Loures","location":"Liugong","postal_code":"2542-346","capacity":7192,"uid_supplier":557},
{"name":"habitasse","city": "Loures","location":"Paojan","postal_code":"2542-346","capacity":9970,"uid_supplier":558},
{"name":"id","city": "Loures","location":"Qianchuan","postal_code":"2542-346","capacity":849,"uid_supplier":559},
{"name":"tellus","city": "Loures","location":"Tilamuta","postal_code":"2542-346","capacity":7474,"uid_supplier":560},
{"name":"congue","city": "Loures","location":"Tavira","postal_code":"2542-346","capacity":8056,"uid_supplier":561},
{"name":"elementum","city": "Loures","location":"El Rancho","postal_code":"2542-346","capacity":2154,"uid_supplier":562},
{"name":"eleifend","city": "Loures","location":"Jiḩānah","postal_code":"2542-346","capacity":9429,"uid_supplier":563},
{"name":"pretium","city": "Loures","location":"Masatepe","postal_code":"2542-346","capacity":7191,"uid_supplier":564},
{"name":"morbi","city": "Loures","location":"Gondar","postal_code":"2542-346","capacity":7623,"uid_supplier":565},
{"name":"primis","city": "Loures","location":"Domsjö","postal_code":"2542-346","capacity":6633,"uid_supplier":566},
{"name":"habitasse","city": "Loures","location":"San Jose","postal_code":"2542-346","capacity":5527,"uid_supplier":567},
{"name":"consequat","city": "Loures","location":"Pampachiri","postal_code":"2542-346","capacity":8425,"uid_supplier":568},
{"name":"id","city": "Loures","location":"Hallstahammar","postal_code":"2542-346","capacity":1252,"uid_supplier":569},
{"name":"justo","city": "Loures","location":"Jiamiao","postal_code":"2542-346","capacity":3008,"uid_supplier":570},
{"name":"felis","city": "Loures","location":"Medina","postal_code":"2542-346","capacity":3586,"uid_supplier":571},
{"name":"nulla","city": "Loures","location":"Weiyanggong","postal_code":"2542-346","capacity":5644,"uid_supplier":572},
{"name":"sollicitudin","city": "Loures","location":"Yousheng","postal_code":"2542-346","capacity":2220,"uid_supplier":573},
{"name":"amet","city": "Loures","location":"Yangshuo","postal_code":"2542-346","capacity":3468,"uid_supplier":574},
{"name":"praesent","city": "Loures","location":"Neyrīz","postal_code":"2542-346","capacity":8743,"uid_supplier":575},
{"name":"eu","city": "Loures","location":"Cidikit Girang","postal_code":"2542-346","capacity":1731,"uid_supplier":576},
{"name":"mauris","city": "Loures","location":"Uluale","postal_code":"2542-346","capacity":510,"uid_supplier":577},
{"name":"magna","city": "Loures","location":"Delgerhaan","postal_code":"2542-346","capacity":1168,"uid_supplier":578},
{"name":"congue","city": "Loures","location":"Tsimlyansk","postal_code":"2542-346","capacity":7163,"uid_supplier":579},
{"name":"ut","city": "Loures","location":"General Santos","postal_code":"2542-346","capacity":4531,"uid_supplier":580},
{"name":"nascetur","city": "Loures","location":"Jiudu","postal_code":"2542-346","capacity":7715,"uid_supplier":581},
{"name":"justo","city": "Loures","location":"Barra","postal_code":"2542-346","capacity":57,"uid_supplier":582},
{"name":"rhoncus","city": "Loures","location":"Yaxi","postal_code":"2542-346","capacity":1178,"uid_supplier":583},
{"name":"enim","city": "Loures","location":"Kostanay","postal_code":"2542-346","capacity":2801,"uid_supplier":584},
{"name":"in","city": "Loures","location":"Morales","postal_code":"2542-346","capacity":6465,"uid_supplier":585},
{"name":"odio","city": "Loures","location":"Fernández","postal_code":"2542-346","capacity":4743,"uid_supplier":586},
{"name":"primis","city": "Loures","location":"Sirnaresmi","postal_code":"2542-346","capacity":4267,"uid_supplier":587},
{"name":"in","city": "Loures","location":"Ucuncha","postal_code":"2542-346","capacity":1064,"uid_supplier":588},
{"name":"ut","city": "Loures","location":"Spassk-Dal’niy","postal_code":"2542-346","capacity":3151,"uid_supplier":589},
{"name":"elit","city": "Loures","location":"Labrador City","postal_code":"2542-346","capacity":590,"uid_supplier":590},
{"name":"pellentesque","city": "Loures","location":"Belköl","postal_code":"2542-346","capacity":5171,"uid_supplier":591},
{"name":"consequat","city": "Loures","location":"Burqah","postal_code":"2542-346","capacity":6404,"uid_supplier":592},
{"name":"quam","city": "Loures","location":"Timba Lauk","postal_code":"2542-346","capacity":9214,"uid_supplier":593},
{"name":"elementum","city": "Loures","location":"Al Ḩawātah","postal_code":"2542-346","capacity":2395,"uid_supplier":594},
{"name":"tristique","city": "Loures","location":"Vathýlakkos","postal_code":"2542-346","capacity":3710,"uid_supplier":595},
{"name":"amet","city": "Loures","location":"Stockholm","postal_code":"2542-346","capacity":7753,"uid_supplier":596},
{"name":"ultrices","city": "Loures","location":"Hexi","postal_code":"2542-346","capacity":7053,"uid_supplier":597},
{"name":"donec","city": "Loures","location":"Ust’-Kut","postal_code":"2542-346","capacity":3626,"uid_supplier":598},
{"name":"a","city": "Loures","location":"Nevers","postal_code":"2542-346","capacity":5359,"uid_supplier":599},
{"name":"laoreet","city": "Loures","location":"Jönköping","postal_code":"2542-346","capacity":1611,"uid_supplier":600},
{"name":"a","city": "Loures","location":"Sengkerang Tiga","postal_code":"2542-346","capacity":8635,"uid_supplier":601},
{"name":"eget","city": "Loures","location":"Road Town","postal_code":"2542-346","capacity":1855,"uid_supplier":602},
{"name":"aliquet","city": "Loures","location":"Zbraslavice","postal_code":"2542-346","capacity":167,"uid_supplier":603},
{"name":"sollicitudin","city": "Loures","location":"Weetobula","postal_code":"2542-346","capacity":8814,"uid_supplier":604},
{"name":"in","city": "Loures","location":"Petit Valley","postal_code":"2542-346","capacity":2705,"uid_supplier":605},
{"name":"aliquet","city": "Loures","location":"Viļaka","postal_code":"2542-346","capacity":5745,"uid_supplier":606},
{"name":"ligula","city": "Loures","location":"Sukamulya","postal_code":"2542-346","capacity":4403,"uid_supplier":607},
{"name":"sit","city": "Loures","location":"Palmasola","postal_code":"2542-346","capacity":8120,"uid_supplier":608},
{"name":"convallis","city": "Loures","location":"Vendas de Galizes","postal_code":"2542-346","capacity":9441,"uid_supplier":609},
{"name":"turpis","city": "Loures","location":"Īz̄eh","postal_code":"2542-346","capacity":5668,"uid_supplier":610},
{"name":"vitae","city": "Loures","location":"Sungai Nyamuk","postal_code":"2542-346","capacity":2540,"uid_supplier":611},
{"name":"aenean","city": "Loures","location":"Sailaitang","postal_code":"2542-346","capacity":417,"uid_supplier":612},
{"name":"interdum","city": "Loures","location":"Sibut","postal_code":"2542-346","capacity":8141,"uid_supplier":613},
{"name":"sem","city": "Loures","location":"Emiliano Zapata","postal_code":"2542-346","capacity":5561,"uid_supplier":614},
{"name":"nam","city": "Loures","location":"Cruzeiro do Oeste","postal_code":"2542-346","capacity":107,"uid_supplier":615},
{"name":"diam","city": "Loures","location":"Concepcion","postal_code":"2542-346","capacity":5507,"uid_supplier":616},
{"name":"faucibus","city": "Loures","location":"Cambarus","postal_code":"2542-346","capacity":3144,"uid_supplier":617},
{"name":"vel","city": "Loures","location":"Göteborg","postal_code":"2542-346","capacity":426,"uid_supplier":618},
{"name":"fusce","city": "Loures","location":"Koszyce Wielkie","postal_code":"2542-346","capacity":3598,"uid_supplier":619},
{"name":"potenti","city": "Loures","location":"Fengjiang","postal_code":"2542-346","capacity":3670,"uid_supplier":620},
{"name":"in","city": "Loures","location":"Frankfurt am Main","postal_code":"2542-346","capacity":5819,"uid_supplier":621},
{"name":"eleifend","city": "Loures","location":"Gora","postal_code":"2542-346","capacity":8772,"uid_supplier":622},
{"name":"vel","city": "Loures","location":"Mojokerto","postal_code":"2542-346","capacity":1991,"uid_supplier":623},
{"name":"aliquam","city": "Loures","location":"Denver","postal_code":"2542-346","capacity":4927,"uid_supplier":624},
{"name":"in","city": "Loures","location":"Žlutice","postal_code":"2542-346","capacity":3713,"uid_supplier":625},
{"name":"curae","city": "Loures","location":"Mossendjo","postal_code":"2542-346","capacity":4773,"uid_supplier":626},
{"name":"sit","city": "Loures","location":"Peñarrubia","postal_code":"2542-346","capacity":8084,"uid_supplier":627},
{"name":"morbi","city": "Loures","location":"Richmond","postal_code":"2542-346","capacity":6164,"uid_supplier":628},
{"name":"dictumst","city": "Loures","location":"Kawakawa","postal_code":"2542-346","capacity":7808,"uid_supplier":629},
{"name":"elementum","city": "Loures","location":"Nouâdhibou","postal_code":"2542-346","capacity":8337,"uid_supplier":630},
{"name":"maecenas","city": "Loures","location":"Wan’an","postal_code":"2542-346","capacity":4403,"uid_supplier":631},
{"name":"neque","city": "Loures","location":"Khartsyz’k","postal_code":"2542-346","capacity":6394,"uid_supplier":632},
{"name":"aenean","city": "Loures","location":"Teupasenti","postal_code":"2542-346","capacity":3387,"uid_supplier":633},
{"name":"in","city": "Loures","location":"Amagasaki","postal_code":"2542-346","capacity":1602,"uid_supplier":634},
{"name":"praesent","city": "Loures","location":"Carman","postal_code":"2542-346","capacity":6078,"uid_supplier":635},
{"name":"tincidunt","city": "Loures","location":"Xiabao","postal_code":"2542-346","capacity":9558,"uid_supplier":636},
{"name":"ante","city": "Loures","location":"Damnoen Saduak","postal_code":"2542-346","capacity":6555,"uid_supplier":637},
{"name":"eros","city": "Loures","location":"Munka-Ljungby","postal_code":"2542-346","capacity":910,"uid_supplier":638},
{"name":"orci","city": "Loures","location":"East End","postal_code":"2542-346","capacity":5190,"uid_supplier":639},
{"name":"magna","city": "Loures","location":"Seboruco","postal_code":"2542-346","capacity":6277,"uid_supplier":640},
{"name":"sagittis","city": "Loures","location":"Méru","postal_code":"2542-346","capacity":1833,"uid_supplier":641},
{"name":"non","city": "Loures","location":"Kulevcha","postal_code":"2542-346","capacity":9834,"uid_supplier":642},
{"name":"convallis","city": "Loures","location":"Boleiros","postal_code":"2542-346","capacity":2297,"uid_supplier":643},
{"name":"sit","city": "Loures","location":"East Angus","postal_code":"2542-346","capacity":5312,"uid_supplier":644},
{"name":"odio","city": "Loures","location":"Ambatofinandrahana","postal_code":"2542-346","capacity":1673,"uid_supplier":645},
{"name":"volutpat","city": "Loures","location":"Labuhan Deli","postal_code":"2542-346","capacity":5082,"uid_supplier":646},
{"name":"a","city": "Loures","location":"Best","postal_code":"2542-346","capacity":4069,"uid_supplier":647},
{"name":"consequat","city": "Loures","location":"Singkup","postal_code":"2542-346","capacity":6521,"uid_supplier":648},
{"name":"id","city": "Loures","location":"San Antonio Suchitepéquez","postal_code":"2542-346","capacity":1653,"uid_supplier":649},
{"name":"praesent","city": "Loures","location":"Vyazniki","postal_code":"2542-346","capacity":8020,"uid_supplier":650},
{"name":"lectus","city": "Loures","location":"Damai","postal_code":"2542-346","capacity":4583,"uid_supplier":651},
{"name":"suscipit","city": "Loures","location":"Boleszkowice","postal_code":"2542-346","capacity":7490,"uid_supplier":652},
{"name":"amet","city": "Loures","location":"Jinquan","postal_code":"2542-346","capacity":3501,"uid_supplier":653},
{"name":"varius","city": "Loures","location":"Kolindrós","postal_code":"2542-346","capacity":446,"uid_supplier":654},
{"name":"imperdiet","city": "Loures","location":"Cantapoy","postal_code":"2542-346","capacity":8639,"uid_supplier":655},
{"name":"quisque","city": "Loures","location":"Huaqiao","postal_code":"2542-346","capacity":2961,"uid_supplier":656},
{"name":"ipsum","city": "Loures","location":"Rudong","postal_code":"2542-346","capacity":2800,"uid_supplier":657},
{"name":"dapibus","city": "Loures","location":"Hacı Zeynalabdin","postal_code":"2542-346","capacity":7866,"uid_supplier":658},
{"name":"convallis","city": "Loures","location":"Ciénaga","postal_code":"2542-346","capacity":1167,"uid_supplier":659},
{"name":"orci","city": "Loures","location":"Mengxi","postal_code":"2542-346","capacity":2332,"uid_supplier":660},
{"name":"etiam","city": "Loures","location":"Samālūţ","postal_code":"2542-346","capacity":6674,"uid_supplier":661},
{"name":"ullamcorper","city": "Loures","location":"Telagaselaba","postal_code":"2542-346","capacity":5005,"uid_supplier":662},
{"name":"libero","city": "Loures","location":"Lintan Chengguanzhen","postal_code":"2542-346","capacity":668,"uid_supplier":663},
{"name":"in","city": "Loures","location":"Yanahuanca","postal_code":"2542-346","capacity":5170,"uid_supplier":664},
{"name":"vivamus","city": "Loures","location":"Ipís","postal_code":"2542-346","capacity":3487,"uid_supplier":665},
{"name":"in","city": "Loures","location":"Makur","postal_code":"2542-346","capacity":7229,"uid_supplier":666},
{"name":"velit","city": "Loures","location":"La Suiza","postal_code":"2542-346","capacity":6485,"uid_supplier":667},
{"name":"vulputate","city": "Loures","location":"Kayar","postal_code":"2542-346","capacity":3480,"uid_supplier":668},
{"name":"facilisi","city": "Loures","location":"Jiukeng","postal_code":"2542-346","capacity":6998,"uid_supplier":669},
{"name":"aliquet","city": "Loures","location":"Belén","postal_code":"2542-346","capacity":6788,"uid_supplier":670},
{"name":"eget","city": "Loures","location":"Penanggapan","postal_code":"2542-346","capacity":2335,"uid_supplier":671},
{"name":"risus","city": "Loures","location":"Quankou","postal_code":"2542-346","capacity":8997,"uid_supplier":672},
{"name":"aliquet","city": "Loures","location":"Togu","postal_code":"2542-346","capacity":6878,"uid_supplier":673},
{"name":"eros","city": "Loures","location":"Miguel Pereira","postal_code":"2542-346","capacity":7307,"uid_supplier":674},
{"name":"eget","city": "Loures","location":"Baomin","postal_code":"2542-346","capacity":4081,"uid_supplier":675},
{"name":"metus","city": "Loures","location":"Ōfunato","postal_code":"2542-346","capacity":8698,"uid_supplier":676},
{"name":"nulla","city": "Loures","location":"Bodĭ","postal_code":"2542-346","capacity":3701,"uid_supplier":677},
{"name":"in","city": "Loures","location":"Boavista","postal_code":"2542-346","capacity":9450,"uid_supplier":678},
{"name":"nulla","city": "Loures","location":"Tadou","postal_code":"2542-346","capacity":7737,"uid_supplier":679},
{"name":"at","city": "Loures","location":"Santa","postal_code":"2542-346","capacity":5710,"uid_supplier":680},
{"name":"at","city": "Loures","location":"Ágios Athanásios","postal_code":"2542-346","capacity":1154,"uid_supplier":681},
{"name":"turpis","city": "Loures","location":"Sukodono","postal_code":"2542-346","capacity":5844,"uid_supplier":682},
{"name":"odio","city": "Loures","location":"Mozhga","postal_code":"2542-346","capacity":4,"uid_supplier":683},
{"name":"nunc","city": "Loures","location":"Jiannan","postal_code":"2542-346","capacity":2792,"uid_supplier":684},
{"name":"consequat","city": "Loures","location":"Opočno","postal_code":"2542-346","capacity":8695,"uid_supplier":685},
{"name":"tristique","city": "Loures","location":"Kasina Wielka","postal_code":"2542-346","capacity":1498,"uid_supplier":686},
{"name":"enim","city": "Loures","location":"Paciran","postal_code":"2542-346","capacity":3563,"uid_supplier":687},
{"name":"id","city": "Loures","location":"Ballyhaunis","postal_code":"2542-346","capacity":1541,"uid_supplier":688},
{"name":"amet","city": "Loures","location":"Tupaciguara","postal_code":"2542-346","capacity":4424,"uid_supplier":689},
{"name":"at","city": "Loures","location":"Manzini","postal_code":"2542-346","capacity":1197,"uid_supplier":690},
{"name":"mauris","city": "Loures","location":"Portmore","postal_code":"2542-346","capacity":4884,"uid_supplier":691},
{"name":"consectetuer","city": "Loures","location":"Budziszewice","postal_code":"2542-346","capacity":7339,"uid_supplier":692},
{"name":"ultrices","city": "Loures","location":"Imari","postal_code":"2542-346","capacity":7138,"uid_supplier":693},
{"name":"quam","city": "Loures","location":"San Andrés","postal_code":"2542-346","capacity":1710,"uid_supplier":694},
{"name":"gravida","city": "Loures","location":"Namballe","postal_code":"2542-346","capacity":7783,"uid_supplier":695},
{"name":"nulla","city": "Loures","location":"Xiaolin","postal_code":"2542-346","capacity":3385,"uid_supplier":696},
{"name":"vestibulum","city": "Loures","location":"Santa Ana","postal_code":"2542-346","capacity":1745,"uid_supplier":697},
{"name":"vestibulum","city": "Loures","location":"Manacsac","postal_code":"2542-346","capacity":9925,"uid_supplier":698},
{"name":"faucibus","city": "Loures","location":"Akbarābād","postal_code":"2542-346","capacity":5492,"uid_supplier":699},
{"name":"tincidunt","city": "Loures","location":"Orahovica","postal_code":"2542-346","capacity":7179,"uid_supplier":700},
{"name":"etiam","city": "Loures","location":"Bungalaleng","postal_code":"2542-346","capacity":8031,"uid_supplier":701},
{"name":"convallis","city": "Loures","location":"Podedwórze","postal_code":"2542-346","capacity":8637,"uid_supplier":702},
{"name":"in","city": "Loures","location":"Sława","postal_code":"2542-346","capacity":577,"uid_supplier":703},
{"name":"id","city": "Loures","location":"Montbéliard","postal_code":"2542-346","capacity":4062,"uid_supplier":704},
{"name":"lectus","city": "Loures","location":"Pulo","postal_code":"2542-346","capacity":5525,"uid_supplier":705},
{"name":"ante","city": "Loures","location":"Mao’er","postal_code":"2542-346","capacity":4606,"uid_supplier":706},
{"name":"tortor","city": "Loures","location":"Laguna Paiva","postal_code":"2542-346","capacity":1624,"uid_supplier":707},
{"name":"in","city": "Loures","location":"Talca","postal_code":"2542-346","capacity":432,"uid_supplier":708},
{"name":"a","city": "Loures","location":"Jinrui","postal_code":"2542-346","capacity":2327,"uid_supplier":709},
{"name":"ipsum","city": "Loures","location":"Linshui","postal_code":"2542-346","capacity":5273,"uid_supplier":710},
{"name":"est","city": "Loures","location":"Gayam","postal_code":"2542-346","capacity":1374,"uid_supplier":711},
{"name":"auctor","city": "Loures","location":"Barengkok Hilir","postal_code":"2542-346","capacity":7815,"uid_supplier":712},
{"name":"vitae","city": "Loures","location":"Dangbigih","postal_code":"2542-346","capacity":585,"uid_supplier":713},
{"name":"molestie","city": "Loures","location":"Guantou","postal_code":"2542-346","capacity":2281,"uid_supplier":714},
{"name":"vestibulum","city": "Loures","location":"Hengjie","postal_code":"2542-346","capacity":7681,"uid_supplier":715},
{"name":"vitae","city": "Loures","location":"Senadan","postal_code":"2542-346","capacity":9530,"uid_supplier":716},
{"name":"dictumst","city": "Loures","location":"Besole","postal_code":"2542-346","capacity":6895,"uid_supplier":717},
{"name":"ut","city": "Loures","location":"Cortiçóis","postal_code":"2542-346","capacity":9173,"uid_supplier":718},
{"name":"eleifend","city": "Loures","location":"Mashan","postal_code":"2542-346","capacity":4598,"uid_supplier":719},
{"name":"potenti","city": "Loures","location":"Eslöv","postal_code":"2542-346","capacity":183,"uid_supplier":720},
{"name":"id","city": "Loures","location":"Helsingborg","postal_code":"2542-346","capacity":4305,"uid_supplier":721},
{"name":"fringilla","city": "Loures","location":"Jiguan","postal_code":"2542-346","capacity":5872,"uid_supplier":722},
{"name":"nullam","city": "Loures","location":"Tvøroyri","postal_code":"2542-346","capacity":5206,"uid_supplier":723},
{"name":"dapibus","city": "Loures","location":"Qiling","postal_code":"2542-346","capacity":1667,"uid_supplier":724},
{"name":"pede","city": "Loures","location":"Morelos","postal_code":"2542-346","capacity":3963,"uid_supplier":725},
{"name":"ultrices","city": "Loures","location":"Likhobory","postal_code":"2542-346","capacity":7751,"uid_supplier":726},
{"name":"sodales","city": "Loures","location":"Orly","postal_code":"2542-346","capacity":6260,"uid_supplier":727},
{"name":"faucibus","city": "Loures","location":"San Isidro","postal_code":"2542-346","capacity":133,"uid_supplier":728},
{"name":"justo","city": "Loures","location":"Griboyedov","postal_code":"2542-346","capacity":5567,"uid_supplier":729},
{"name":"fermentum","city": "Loures","location":"Mawu","postal_code":"2542-346","capacity":6254,"uid_supplier":730},
{"name":"nisi","city": "Loures","location":"Tarbes","postal_code":"2542-346","capacity":1964,"uid_supplier":731},
{"name":"eget","city": "Loures","location":"Kolonnawa","postal_code":"2542-346","capacity":9688,"uid_supplier":732},
{"name":"dictumst","city": "Loures","location":"London","postal_code":"2542-346","capacity":3133,"uid_supplier":733},
{"name":"mattis","city": "Loures","location":"Nong Bua","postal_code":"2542-346","capacity":3854,"uid_supplier":734},
{"name":"sapien","city": "Loures","location":"Berlin","postal_code":"2542-346","capacity":5745,"uid_supplier":735},
{"name":"quisque","city": "Loures","location":"Mirny","postal_code":"2542-346","capacity":7442,"uid_supplier":736},
{"name":"id","city": "Loures","location":"Obninsk","postal_code":"2542-346","capacity":7108,"uid_supplier":737},
{"name":"in","city": "Loures","location":"Diwopu","postal_code":"2542-346","capacity":4272,"uid_supplier":738},
{"name":"magna","city": "Loures","location":"Podstepki","postal_code":"2542-346","capacity":1392,"uid_supplier":739},
{"name":"quis","city": "Loures","location":"Capitán Bermúdez","postal_code":"2542-346","capacity":9582,"uid_supplier":740},
{"name":"est","city": "Loures","location":"Leuwihalang","postal_code":"2542-346","capacity":5569,"uid_supplier":741},
{"name":"condimentum","city": "Loures","location":"Qalqaman","postal_code":"2542-346","capacity":6205,"uid_supplier":742},
{"name":"maecenas","city": "Loures","location":"Baganha","postal_code":"2542-346","capacity":4547,"uid_supplier":743},
{"name":"tellus","city": "Loures","location":"Vratsa","postal_code":"2542-346","capacity":3884,"uid_supplier":744},
{"name":"lacinia","city": "Loures","location":"Donghe","postal_code":"2542-346","capacity":4980,"uid_supplier":745},
{"name":"morbi","city": "Loures","location":"Lleida","postal_code":"2542-346","capacity":657,"uid_supplier":746},
{"name":"augue","city": "Loures","location":"Zhangxi","postal_code":"2542-346","capacity":9246,"uid_supplier":747},
{"name":"tincidunt","city": "Loures","location":"Ayapel","postal_code":"2542-346","capacity":7881,"uid_supplier":748},
{"name":"pellentesque","city": "Loures","location":"Smithers","postal_code":"2542-346","capacity":7273,"uid_supplier":749},
{"name":"sit","city": "Loures","location":"Marelesu","postal_code":"2542-346","capacity":2119,"uid_supplier":750},
{"name":"eros","city": "Loures","location":"Mach","postal_code":"2542-346","capacity":7117,"uid_supplier":751},
{"name":"fringilla","city": "Loures","location":"Balugo","postal_code":"2542-346","capacity":8291,"uid_supplier":752},
{"name":"sodales","city": "Loures","location":"Watthana Nakhon","postal_code":"2542-346","capacity":9998,"uid_supplier":753},
{"name":"ut","city": "Loures","location":"Gaïtánion","postal_code":"2542-346","capacity":3556,"uid_supplier":754},
{"name":"venenatis","city": "Loures","location":"Xuanhua","postal_code":"2542-346","capacity":1169,"uid_supplier":755},
{"name":"morbi","city": "Loures","location":"Novozybkov","postal_code":"2542-346","capacity":5201,"uid_supplier":756},
{"name":"quam","city": "Loures","location":"Tiwi","postal_code":"2542-346","capacity":7475,"uid_supplier":757},
{"name":"arcu","city": "Loures","location":"Yasynuvata","postal_code":"2542-346","capacity":4342,"uid_supplier":758},
{"name":"cras","city": "Loures","location":"Serra da Silveira","postal_code":"2542-346","capacity":5064,"uid_supplier":759},
{"name":"est","city": "Loures","location":"Korniyivka","postal_code":"2542-346","capacity":6815,"uid_supplier":760},
{"name":"posuere","city": "Loures","location":"Kurye","postal_code":"2542-346","capacity":9194,"uid_supplier":761},
{"name":"arcu","city": "Loures","location":"Abbotsford","postal_code":"2542-346","capacity":5413,"uid_supplier":762},
{"name":"fusce","city": "Loures","location":"Kantyshevo","postal_code":"2542-346","capacity":9623,"uid_supplier":763},
{"name":"nulla","city": "Loures","location":"Fuming","postal_code":"2542-346","capacity":7951,"uid_supplier":764},
{"name":"dapibus","city": "Loures","location":"Flor da Mata","postal_code":"2542-346","capacity":1392,"uid_supplier":765},
{"name":"primis","city": "Loures","location":"Dundbürd","postal_code":"2542-346","capacity":5311,"uid_supplier":766},
{"name":"sapien","city": "Loures","location":"Cabuyao","postal_code":"2542-346","capacity":8522,"uid_supplier":767},
{"name":"nibh","city": "Loures","location":"Callahuanca","postal_code":"2542-346","capacity":8989,"uid_supplier":768},
{"name":"ultrices","city": "Loures","location":"Dandian","postal_code":"2542-346","capacity":3125,"uid_supplier":769},
{"name":"ut","city": "Loures","location":"Pingshan","postal_code":"2542-346","capacity":7236,"uid_supplier":770},
{"name":"ipsum","city": "Loures","location":"Independencia","postal_code":"2542-346","capacity":1138,"uid_supplier":771},
{"name":"est","city": "Loures","location":"Eirol","postal_code":"2542-346","capacity":3575,"uid_supplier":772},
{"name":"interdum","city": "Loures","location":"Élancourt","postal_code":"2542-346","capacity":3408,"uid_supplier":773},
{"name":"diam","city": "Loures","location":"Xike","postal_code":"2542-346","capacity":4439,"uid_supplier":774},
{"name":"donec","city": "Loures","location":"Wulan Haye","postal_code":"2542-346","capacity":7791,"uid_supplier":775},
{"name":"arcu","city": "Loures","location":"Paris 19","postal_code":"2542-346","capacity":1717,"uid_supplier":776},
{"name":"tempus","city": "Loures","location":"Namling","postal_code":"2542-346","capacity":9214,"uid_supplier":777},
{"name":"rhoncus","city": "Loures","location":"Xixia","postal_code":"2542-346","capacity":9175,"uid_supplier":778},
{"name":"leo","city": "Loures","location":"Anáfi","postal_code":"2542-346","capacity":4318,"uid_supplier":779},
{"name":"rutrum","city": "Loures","location":"Oum Hadjer","postal_code":"2542-346","capacity":2871,"uid_supplier":780},
{"name":"platea","city": "Loures","location":"Mambulo","postal_code":"2542-346","capacity":8426,"uid_supplier":781},
{"name":"bibendum","city": "Loures","location":"Bedayu","postal_code":"2542-346","capacity":1090,"uid_supplier":782},
{"name":"aliquam","city": "Loures","location":"Bebae","postal_code":"2542-346","capacity":763,"uid_supplier":783},
{"name":"nam","city": "Loures","location":"Biskamzha","postal_code":"2542-346","capacity":3893,"uid_supplier":784},
{"name":"suspendisse","city": "Loures","location":"Deh-e Now","postal_code":"2542-346","capacity":9534,"uid_supplier":785},
{"name":"justo","city": "Loures","location":"Jardinópolis","postal_code":"2542-346","capacity":4856,"uid_supplier":786},
{"name":"vestibulum","city": "Loures","location":"Sukamaju","postal_code":"2542-346","capacity":1718,"uid_supplier":787},
{"name":"proin","city": "Loures","location":"Furukawa","postal_code":"2542-346","capacity":4579,"uid_supplier":788},
{"name":"amet","city": "Loures","location":"Guangping","postal_code":"2542-346","capacity":4120,"uid_supplier":789},
{"name":"duis","city": "Loures","location":"Fagersta","postal_code":"2542-346","capacity":7822,"uid_supplier":790},
{"name":"consequat","city": "Loures","location":"Qianchuan","postal_code":"2542-346","capacity":9888,"uid_supplier":791},
{"name":"nulla","city": "Loures","location":"Rozvadov","postal_code":"2542-346","capacity":2521,"uid_supplier":792},
{"name":"leo","city": "Loures","location":"Kurume","postal_code":"2542-346","capacity":7310,"uid_supplier":793},
{"name":"curabitur","city": "Loures","location":"Gōdo","postal_code":"2542-346","capacity":3725,"uid_supplier":794},
{"name":"tristique","city": "Loures","location":"Fengshan","postal_code":"2542-346","capacity":3852,"uid_supplier":795},
{"name":"erat","city": "Loures","location":"Karangpete","postal_code":"2542-346","capacity":4234,"uid_supplier":796},
{"name":"diam","city": "Loures","location":"Frutillar","postal_code":"2542-346","capacity":1656,"uid_supplier":797},
{"name":"felis","city": "Loures","location":"Al Azraq ash Shamālī","postal_code":"2542-346","capacity":147,"uid_supplier":798},
{"name":"malesuada","city": "Loures","location":"Karangagung Timur","postal_code":"2542-346","capacity":6769,"uid_supplier":799},
{"name":"consequat","city": "Loures","location":"Mauá","postal_code":"2542-346","capacity":5973,"uid_supplier":800},
{"name":"diam","city": "Loures","location":"Pariti","postal_code":"2542-346","capacity":101,"uid_supplier":801},
{"name":"at","city": "Loures","location":"Lae","postal_code":"2542-346","capacity":8316,"uid_supplier":802},
{"name":"eget","city": "Loures","location":"Tamaulipas","postal_code":"2542-346","capacity":9766,"uid_supplier":803},
{"name":"vel","city": "Loures","location":"Unión de Reyes","postal_code":"2542-346","capacity":2460,"uid_supplier":804},
{"name":"metus","city": "Loures","location":"Kokstad","postal_code":"2542-346","capacity":214,"uid_supplier":805},
{"name":"justo","city": "Loures","location":"Perovo","postal_code":"2542-346","capacity":5005,"uid_supplier":806},
{"name":"auctor","city": "Loures","location":"Parada de Pinhão","postal_code":"2542-346","capacity":8972,"uid_supplier":807},
{"name":"cubilia","city": "Loures","location":"San Martín","postal_code":"2542-346","capacity":3126,"uid_supplier":808},
{"name":"erat","city": "Loures","location":"Tulyushka","postal_code":"2542-346","capacity":4821,"uid_supplier":809},
{"name":"nullam","city": "Loures","location":"Ust’-Dzheguta","postal_code":"2542-346","capacity":6931,"uid_supplier":810},
{"name":"felis","city": "Loures","location":"Tanxi","postal_code":"2542-346","capacity":7140,"uid_supplier":811},
{"name":"ut","city": "Loures","location":"Santa María de Jesús","postal_code":"2542-346","capacity":5575,"uid_supplier":812},
{"name":"placerat","city": "Loures","location":"Pyatnitskoye","postal_code":"2542-346","capacity":2612,"uid_supplier":813},
{"name":"iaculis","city": "Loures","location":"Sendangkemulian","postal_code":"2542-346","capacity":6682,"uid_supplier":814},
{"name":"magna","city": "Loures","location":"Foz Sousa","postal_code":"2542-346","capacity":4603,"uid_supplier":815},
{"name":"magna","city": "Loures","location":"Al Qarmadah","postal_code":"2542-346","capacity":3037,"uid_supplier":816},
{"name":"quisque","city": "Loures","location":"Gagnoa","postal_code":"2542-346","capacity":8437,"uid_supplier":817},
{"name":"ut","city": "Loures","location":"Grzechynia","postal_code":"2542-346","capacity":5216,"uid_supplier":818},
{"name":"aenean","city": "Loures","location":"Hong’an","postal_code":"2542-346","capacity":9814,"uid_supplier":819},
{"name":"ut","city": "Loures","location":"Xingou","postal_code":"2542-346","capacity":7792,"uid_supplier":820},
{"name":"in","city": "Loures","location":"Cahabón","postal_code":"2542-346","capacity":9998,"uid_supplier":821},
{"name":"tortor","city": "Loures","location":"Radlje ob Dravi","postal_code":"2542-346","capacity":1079,"uid_supplier":822},
{"name":"donec","city": "Loures","location":"Saint Pierre","postal_code":"2542-346","capacity":6494,"uid_supplier":823},
{"name":"lacus","city": "Loures","location":"Kalvola","postal_code":"2542-346","capacity":6635,"uid_supplier":824},
{"name":"est","city": "Loures","location":"Topolovgrad","postal_code":"2542-346","capacity":5378,"uid_supplier":825},
{"name":"condimentum","city": "Loures","location":"General Lavalle","postal_code":"2542-346","capacity":2621,"uid_supplier":826},
{"name":"libero","city": "Loures","location":"Pisangkemeng","postal_code":"2542-346","capacity":1295,"uid_supplier":827},
{"name":"at","city": "Loures","location":"Pakemitan","postal_code":"2542-346","capacity":2964,"uid_supplier":828},
{"name":"vestibulum","city": "Loures","location":"Chhāgalnāiya","postal_code":"2542-346","capacity":7401,"uid_supplier":829},
{"name":"non","city": "Loures","location":"Kuzhu","postal_code":"2542-346","capacity":4982,"uid_supplier":830},
{"name":"faucibus","city": "Loures","location":"Alkmaar","postal_code":"2542-346","capacity":7949,"uid_supplier":831},
{"name":"donec","city": "Loures","location":"Coroatá","postal_code":"2542-346","capacity":4045,"uid_supplier":832},
{"name":"sed","city": "Loures","location":"Sarbīsheh","postal_code":"2542-346","capacity":7689,"uid_supplier":833},
{"name":"ut","city": "Loures","location":"Ubinskoye","postal_code":"2542-346","capacity":5878,"uid_supplier":834},
{"name":"at","city": "Loures","location":"Songnim","postal_code":"2542-346","capacity":2111,"uid_supplier":835},
{"name":"et","city": "Loures","location":"Klagen","postal_code":"2542-346","capacity":177,"uid_supplier":836},
{"name":"integer","city": "Loures","location":"Gongchang","postal_code":"2542-346","capacity":7671,"uid_supplier":837},
{"name":"et","city": "Loures","location":"Jinghong","postal_code":"2542-346","capacity":6885,"uid_supplier":838},
{"name":"metus","city": "Loures","location":"Cikijing","postal_code":"2542-346","capacity":4512,"uid_supplier":839},
{"name":"at","city": "Loures","location":"Gangsha","postal_code":"2542-346","capacity":4947,"uid_supplier":840},
{"name":"tristique","city": "Loures","location":"San Lorenzo","postal_code":"2542-346","capacity":8273,"uid_supplier":841},
{"name":"aliquet","city": "Loures","location":"Caikouji","postal_code":"2542-346","capacity":2471,"uid_supplier":842},
{"name":"lectus","city": "Loures","location":"Ongkharak","postal_code":"2542-346","capacity":2634,"uid_supplier":843},
{"name":"lacus","city": "Loures","location":"Vrýses","postal_code":"2542-346","capacity":7236,"uid_supplier":844},
{"name":"vel","city": "Loures","location":"Fengyan","postal_code":"2542-346","capacity":5642,"uid_supplier":845},
{"name":"nibh","city": "Loures","location":"Järna","postal_code":"2542-346","capacity":8498,"uid_supplier":846},
{"name":"vestibulum","city": "Loures","location":"Houjiachuan","postal_code":"2542-346","capacity":3232,"uid_supplier":847},
{"name":"vitae","city": "Loures","location":"Sinmak","postal_code":"2542-346","capacity":8182,"uid_supplier":848},
{"name":"nunc","city": "Loures","location":"Ploso","postal_code":"2542-346","capacity":6552,"uid_supplier":849},
{"name":"lobortis","city": "Loures","location":"Butigui","postal_code":"2542-346","capacity":7250,"uid_supplier":850},
{"name":"rhoncus","city": "Loures","location":"Murzuq","postal_code":"2542-346","capacity":9083,"uid_supplier":851},
{"name":"enim","city": "Loures","location":"Probolinggo","postal_code":"2542-346","capacity":8164,"uid_supplier":852},
{"name":"justo","city": "Loures","location":"Datarkadu","postal_code":"2542-346","capacity":7190,"uid_supplier":853},
{"name":"vulputate","city": "Loures","location":"Pamanukan","postal_code":"2542-346","capacity":6595,"uid_supplier":854},
{"name":"ac","city": "Loures","location":"Rosice","postal_code":"2542-346","capacity":9172,"uid_supplier":855},
{"name":"justo","city": "Loures","location":"Cabuyao","postal_code":"2542-346","capacity":2886,"uid_supplier":856},
{"name":"sapien","city": "Loures","location":"Radovitskiy","postal_code":"2542-346","capacity":7436,"uid_supplier":857},
{"name":"maecenas","city": "Loures","location":"Bielefeld","postal_code":"2542-346","capacity":3625,"uid_supplier":858},
{"name":"enim","city": "Loures","location":"Bani","postal_code":"2542-346","capacity":8498,"uid_supplier":859},
{"name":"tincidunt","city": "Loures","location":"Beutong Ateuh","postal_code":"2542-346","capacity":6284,"uid_supplier":860},
{"name":"nibh","city": "Loures","location":"Lagoa","postal_code":"2542-346","capacity":7884,"uid_supplier":861},
{"name":"at","city": "Loures","location":"Timbiras","postal_code":"2542-346","capacity":9185,"uid_supplier":862},
{"name":"odio","city": "Loures","location":"Selínia","postal_code":"2542-346","capacity":6,"uid_supplier":863},
{"name":"magna","city": "Loures","location":"Raman","postal_code":"2542-346","capacity":8795,"uid_supplier":864},
{"name":"sapien","city": "Loures","location":"Broska","postal_code":"2542-346","capacity":4177,"uid_supplier":865},
{"name":"donec","city": "Loures","location":"Sindangrasa","postal_code":"2542-346","capacity":2784,"uid_supplier":866},
{"name":"sollicitudin","city": "Loures","location":"Leicheng","postal_code":"2542-346","capacity":7406,"uid_supplier":867},
{"name":"lobortis","city": "Loures","location":"Zelenogorsk","postal_code":"2542-346","capacity":9086,"uid_supplier":868},
{"name":"et","city": "Loures","location":"Mramani","postal_code":"2542-346","capacity":7009,"uid_supplier":869},
{"name":"hendrerit","city": "Loures","location":"Dakingari","postal_code":"2542-346","capacity":4355,"uid_supplier":870},
{"name":"orci","city": "Loures","location":"Sukaraja","postal_code":"2542-346","capacity":8689,"uid_supplier":871},
{"name":"tristique","city": "Loures","location":"Khalīlābād","postal_code":"2542-346","capacity":7943,"uid_supplier":872},
{"name":"vulputate","city": "Loures","location":"Bralin","postal_code":"2542-346","capacity":1414,"uid_supplier":873},
{"name":"a","city": "Loures","location":"Quevedo","postal_code":"2542-346","capacity":7536,"uid_supplier":874},
{"name":"aliquam","city": "Loures","location":"Ghār al Milḩ","postal_code":"2542-346","capacity":4273,"uid_supplier":875},
{"name":"nec","city": "Loures","location":"Mrozy","postal_code":"2542-346","capacity":6640,"uid_supplier":876},
{"name":"nibh","city": "Loures","location":"Sankeyushu","postal_code":"2542-346","capacity":8505,"uid_supplier":877},
{"name":"in","city": "Loures","location":"Puerto Ayacucho","postal_code":"2542-346","capacity":7842,"uid_supplier":878},
{"name":"nam","city": "Loures","location":"Petoa","postal_code":"2542-346","capacity":9765,"uid_supplier":879},
{"name":"orci","city": "Loures","location":"Fuxing","postal_code":"2542-346","capacity":5113,"uid_supplier":880},
{"name":"proin","city": "Loures","location":"Madona","postal_code":"2542-346","capacity":2940,"uid_supplier":881},
{"name":"posuere","city": "Loures","location":"Paulpietersburg","postal_code":"2542-346","capacity":9167,"uid_supplier":882},
{"name":"ipsum","city": "Loures","location":"Bairro","postal_code":"2542-346","capacity":1363,"uid_supplier":883},
{"name":"erat","city": "Loures","location":"Babah Rot","postal_code":"2542-346","capacity":5850,"uid_supplier":884},
{"name":"molestie","city": "Loures","location":"Buenos Aires","postal_code":"2542-346","capacity":2638,"uid_supplier":885},
{"name":"purus","city": "Loures","location":"Manoel Urbano","postal_code":"2542-346","capacity":3269,"uid_supplier":886},
{"name":"turpis","city": "Loures","location":"Gulao","postal_code":"2542-346","capacity":7367,"uid_supplier":887},
{"name":"donec","city": "Loures","location":"Wonodadi","postal_code":"2542-346","capacity":3755,"uid_supplier":888},
{"name":"quis","city": "Loures","location":"Ketang","postal_code":"2542-346","capacity":4967,"uid_supplier":889},
{"name":"integer","city": "Loures","location":"Cambebba","postal_code":"2542-346","capacity":4470,"uid_supplier":890},
{"name":"ipsum","city": "Loures","location":"Gurupi","postal_code":"2542-346","capacity":5592,"uid_supplier":891},
{"name":"primis","city": "Loures","location":"Gyangqai","postal_code":"2542-346","capacity":5580,"uid_supplier":892},
{"name":"massa","city": "Loures","location":"Perpignan","postal_code":"2542-346","capacity":7429,"uid_supplier":893},
{"name":"arcu","city": "Loures","location":"Chaiyaphum","postal_code":"2542-346","capacity":475,"uid_supplier":894},
{"name":"integer","city": "Loures","location":"Astypálaia","postal_code":"2542-346","capacity":6145,"uid_supplier":895},
{"name":"molestie","city": "Loures","location":"Wakaseko","postal_code":"2542-346","capacity":7577,"uid_supplier":896},
{"name":"rutrum","city": "Loures","location":"Shiguai","postal_code":"2542-346","capacity":2839,"uid_supplier":897},
{"name":"vel","city": "Loures","location":"Cantoria","postal_code":"2542-346","capacity":2560,"uid_supplier":898},
{"name":"tincidunt","city": "Loures","location":"Xinji","postal_code":"2542-346","capacity":3603,"uid_supplier":899},
{"name":"pellentesque","city": "Loures","location":"Wushi","postal_code":"2542-346","capacity":2271,"uid_supplier":900},
{"name":"sed","city": "Loures","location":"Jurva","postal_code":"2542-346","capacity":8415,"uid_supplier":901},
{"name":"consequat","city": "Loures","location":"Dongshui","postal_code":"2542-346","capacity":695,"uid_supplier":902},
{"name":"volutpat","city": "Loures","location":"Budapest","postal_code":"2542-346","capacity":818,"uid_supplier":903},
{"name":"in","city": "Loures","location":"Gharavŭtí","postal_code":"2542-346","capacity":9635,"uid_supplier":904},
{"name":"vel","city": "Loures","location":"Kota Kinabalu","postal_code":"2542-346","capacity":4047,"uid_supplier":905},
{"name":"rutrum","city": "Loures","location":"Itapetinga","postal_code":"2542-346","capacity":4173,"uid_supplier":906},
{"name":"sit","city": "Loures","location":"Trbovlje","postal_code":"2542-346","capacity":2455,"uid_supplier":907},
{"name":"posuere","city": "Loures","location":"Macedo de Cavaleiros","postal_code":"2542-346","capacity":5997,"uid_supplier":908},
{"name":"nec","city": "Loures","location":"Zvezdara","postal_code":"2542-346","capacity":2630,"uid_supplier":909},
{"name":"nisl","city": "Loures","location":"Ulme","postal_code":"2542-346","capacity":5626,"uid_supplier":910},
{"name":"turpis","city": "Loures","location":"Kortowo","postal_code":"2542-346","capacity":5227,"uid_supplier":911},
{"name":"proin","city": "Loures","location":"Nagua","postal_code":"2542-346","capacity":3540,"uid_supplier":912},
{"name":"sed","city": "Loures","location":"Ourense","postal_code":"2542-346","capacity":5697,"uid_supplier":913},
{"name":"duis","city": "Loures","location":"Ganlin","postal_code":"2542-346","capacity":4574,"uid_supplier":914},
{"name":"gravida","city": "Loures","location":"San Miguel","postal_code":"2542-346","capacity":914,"uid_supplier":915},
{"name":"quam","city": "Loures","location":"Tsengel","postal_code":"2542-346","capacity":204,"uid_supplier":916},
{"name":"quis","city": "Loures","location":"Uyo","postal_code":"2542-346","capacity":6071,"uid_supplier":917},
{"name":"fusce","city": "Loures","location":"Xinmatou","postal_code":"2542-346","capacity":5299,"uid_supplier":918},
{"name":"id","city": "Loures","location":"Sacramento","postal_code":"2542-346","capacity":9915,"uid_supplier":919},
{"name":"maecenas","city": "Loures","location":"Konstantinovskoye","postal_code":"2542-346","capacity":6663,"uid_supplier":920},
{"name":"ut","city": "Loures","location":"Cancela","postal_code":"2542-346","capacity":7565,"uid_supplier":921},
{"name":"eget","city": "Loures","location":"Bongor","postal_code":"2542-346","capacity":5387,"uid_supplier":922},
{"name":"sollicitudin","city": "Loures","location":"Punkaharju","postal_code":"2542-346","capacity":3216,"uid_supplier":923},
{"name":"dis","city": "Loures","location":"Habiganj","postal_code":"2542-346","capacity":6503,"uid_supplier":924},
{"name":"curae","city": "Loures","location":"Rodnikovskaya","postal_code":"2542-346","capacity":1683,"uid_supplier":925},
{"name":"sapien","city": "Loures","location":"‘Ibwayn","postal_code":"2542-346","capacity":453,"uid_supplier":926},
{"name":"leo","city": "Loures","location":"West Jerusalem","postal_code":"2542-346","capacity":9773,"uid_supplier":927},
{"name":"suspendisse","city": "Loures","location":"Zhuting","postal_code":"2542-346","capacity":4179,"uid_supplier":928},
{"name":"tristique","city": "Loures","location":"Xinchengzi","postal_code":"2542-346","capacity":5702,"uid_supplier":929},
{"name":"mus","city": "Loures","location":"Edéa","postal_code":"2542-346","capacity":2679,"uid_supplier":930},
{"name":"ut","city": "Loures","location":"Uničov","postal_code":"2542-346","capacity":2886,"uid_supplier":931},
{"name":"accumsan","city": "Loures","location":"Bang Kho Laem","postal_code":"2542-346","capacity":2124,"uid_supplier":932},
{"name":"amet","city": "Loures","location":"Springfield","postal_code":"2542-346","capacity":5365,"uid_supplier":933},
{"name":"nisi","city": "Loures","location":"Niš","postal_code":"2542-346","capacity":1624,"uid_supplier":934},
{"name":"lectus","city": "Loures","location":"Zambujal","postal_code":"2542-346","capacity":1954,"uid_supplier":935},
{"name":"molestie","city": "Loures","location":"Seynod","postal_code":"2542-346","capacity":2172,"uid_supplier":936},
{"name":"justo","city": "Loures","location":"Nicola Town","postal_code":"2542-346","capacity":5132,"uid_supplier":937},
{"name":"ut","city": "Loures","location":"Yumendong","postal_code":"2542-346","capacity":2879,"uid_supplier":938},
{"name":"vestibulum","city": "Loures","location":"Além","postal_code":"2542-346","capacity":5421,"uid_supplier":939},
{"name":"lorem","city": "Loures","location":"Loma Bonita","postal_code":"2542-346","capacity":8662,"uid_supplier":940},
{"name":"tempus","city": "Loures","location":"Hamburg Winterhude","postal_code":"2542-346","capacity":781,"uid_supplier":941},
{"name":"adipiscing","city": "Loures","location":"Barraute","postal_code":"2542-346","capacity":2675,"uid_supplier":942},
{"name":"quisque","city": "Loures","location":"Gaojiabu","postal_code":"2542-346","capacity":6508,"uid_supplier":943},
{"name":"ut","city": "Loures","location":"Manay","postal_code":"2542-346","capacity":1451,"uid_supplier":944},
{"name":"dolor","city": "Loures","location":"Gaphatshwe","postal_code":"2542-346","capacity":5233,"uid_supplier":945},
{"name":"dapibus","city": "Loures","location":"Čačak","postal_code":"2542-346","capacity":8399,"uid_supplier":946},
{"name":"sapien","city": "Loures","location":"Malummaduri","postal_code":"2542-346","capacity":2851,"uid_supplier":947},
{"name":"risus","city": "Loures","location":"Pilluana","postal_code":"2542-346","capacity":2899,"uid_supplier":948},
{"name":"arcu","city": "Loures","location":"Barueri","postal_code":"2542-346","capacity":3044,"uid_supplier":949},
{"name":"ac","city": "Loures","location":"Danglang Hudong","postal_code":"2542-346","capacity":8121,"uid_supplier":950},
{"name":"aenean","city": "Loures","location":"Amerta","postal_code":"2542-346","capacity":6206,"uid_supplier":951},
{"name":"id","city": "Loures","location":"Guantánamo","postal_code":"2542-346","capacity":5333,"uid_supplier":952},
{"name":"semper","city": "Loures","location":"Hanyuan","postal_code":"2542-346","capacity":9608,"uid_supplier":953},
{"name":"velit","city": "Loures","location":"Pokrovskoye","postal_code":"2542-346","capacity":3199,"uid_supplier":954},
{"name":"pede","city": "Loures","location":"Cavadas","postal_code":"2542-346","capacity":1548,"uid_supplier":955},
{"name":"volutpat","city": "Loures","location":"Genting","postal_code":"2542-346","capacity":5011,"uid_supplier":956},
{"name":"augue","city": "Loures","location":"Yacheng","postal_code":"2542-346","capacity":1915,"uid_supplier":957},
{"name":"ante","city": "Loures","location":"Noyelles-sous-Lens","postal_code":"2542-346","capacity":9168,"uid_supplier":958},
{"name":"vestibulum","city": "Loures","location":"Septfontaines","postal_code":"2542-346","capacity":1038,"uid_supplier":959},
{"name":"maecenas","city": "Loures","location":"Dulangan","postal_code":"2542-346","capacity":8700,"uid_supplier":960},
{"name":"felis","city": "Loures","location":"Jiancheng","postal_code":"2542-346","capacity":2083,"uid_supplier":961},
{"name":"molestie","city": "Loures","location":"Tangjin","postal_code":"2542-346","capacity":767,"uid_supplier":962},
{"name":"cubilia","city": "Loures","location":"Karangduren Dua","postal_code":"2542-346","capacity":2286,"uid_supplier":963},
{"name":"habitasse","city": "Loures","location":"Rakhmanovo","postal_code":"2542-346","capacity":3443,"uid_supplier":964},
{"name":"luctus","city": "Loures","location":"Tsowkêy","postal_code":"2542-346","capacity":4051,"uid_supplier":965},
{"name":"venenatis","city": "Loures","location":"Bauchi","postal_code":"2542-346","capacity":7275,"uid_supplier":966},
{"name":"ac","city": "Loures","location":"Erjia","postal_code":"2542-346","capacity":7222,"uid_supplier":967},
{"name":"tortor","city": "Loures","location":"Char Bhadrāsan","postal_code":"2542-346","capacity":9837,"uid_supplier":968},
{"name":"justo","city": "Loures","location":"Pira","postal_code":"2542-346","capacity":7696,"uid_supplier":969},
{"name":"nulla","city": "Loures","location":"Krutaya Gorka","postal_code":"2542-346","capacity":2904,"uid_supplier":970},
{"name":"purus","city": "Loures","location":"Madaoua","postal_code":"2542-346","capacity":2589,"uid_supplier":971},
{"name":"platea","city": "Loures","location":"Tanjung","postal_code":"2542-346","capacity":2013,"uid_supplier":972},
{"name":"turpis","city": "Loures","location":"Mount Ayliff","postal_code":"2542-346","capacity":423,"uid_supplier":973},
{"name":"lorem","city": "Loures","location":"Langkaplancar","postal_code":"2542-346","capacity":1729,"uid_supplier":974},
{"name":"nulla","city": "Loures","location":"Horki","postal_code":"2542-346","capacity":4995,"uid_supplier":975},
{"name":"vestibulum","city": "Loures","location":"‘Izbat al Burj","postal_code":"2542-346","capacity":2021,"uid_supplier":976},
{"name":"hac","city": "Loures","location":"Muang Xay","postal_code":"2542-346","capacity":2122,"uid_supplier":977},
{"name":"vel","city": "Loures","location":"Kouloúra","postal_code":"2542-346","capacity":1576,"uid_supplier":978},
{"name":"dolor","city": "Loures","location":"Piła","postal_code":"2542-346","capacity":4792,"uid_supplier":979},
{"name":"orci","city": "Loures","location":"San Vicente","postal_code":"2542-346","capacity":6908,"uid_supplier":980},
{"name":"eu","city": "Loures","location":"Mancos","postal_code":"2542-346","capacity":9233,"uid_supplier":981},
{"name":"vestibulum","city": "Loures","location":"Huacho","postal_code":"2542-346","capacity":7782,"uid_supplier":982},
{"name":"hac","city": "Loures","location":"Breda","postal_code":"2542-346","capacity":8614,"uid_supplier":983},
{"name":"congue","city": "Loures","location":"Rawannawi Village","postal_code":"2542-346","capacity":278,"uid_supplier":984},
{"name":"morbi","city": "Loures","location":"Merik","postal_code":"2542-346","capacity":1132,"uid_supplier":985},
{"name":"nulla","city": "Loures","location":"Huayuan","postal_code":"2542-346","capacity":5140,"uid_supplier":986},
{"name":"at","city": "Loures","location":"Kuala Lumpur","postal_code":"2542-346","capacity":4016,"uid_supplier":987},
{"name":"in","city": "Loures","location":"Houston","postal_code":"2542-346","capacity":8510,"uid_supplier":988},
{"name":"a","city": "Loures","location":"Al Jīb","postal_code":"2542-346","capacity":7491,"uid_supplier":989},
{"name":"laoreet","city": "Loures","location":"Nizhnyaya Salda","postal_code":"2542-346","capacity":7223,"uid_supplier":990},
{"name":"ligula","city": "Loures","location":"Varpaisjärvi","postal_code":"2542-346","capacity":5618,"uid_supplier":991},
{"name":"nulla","city": "Loures","location":"Al Jawf","postal_code":"2542-346","capacity":1213,"uid_supplier":992},
{"name":"mauris","city": "Loures","location":"Los Boquerones","postal_code":"2542-346","capacity":8563,"uid_supplier":993},
{"name":"consectetuer","city": "Loures","location":"Masoyila","postal_code":"2542-346","capacity":9629,"uid_supplier":994},
{"name":"ante","city": "Loures","location":"Mirocin","postal_code":"2542-346","capacity":5753,"uid_supplier":995},
{"name":"mattis","city": "Loures","location":"Bandar-e Torkaman","postal_code":"2542-346","capacity":7206,"uid_supplier":996},
{"name":"congue","city": "Loures","location":"Yingchun","postal_code":"2542-346","capacity":7656,"uid_supplier":997},
{"name":"quisque","city": "Loures","location":"Sollefteå","postal_code":"2542-346","capacity":6277,"uid_supplier":998},
{"name":"leo","city": "Loures","location":"Marsaxlokk","postal_code":"2542-346","capacity":3411,"uid_supplier":999},
{"name":"cras","city": "Loures","location":"Sindangheula","postal_code":"2542-346","capacity":5017,"uid_supplier":1000}]